timestamp,states[0],states[1],states[2],states[3],states[4],states[5],states[6],states[7],states[8],states[9],states[10],states[11],states[12],states[13],states[14],states[15],states[16],states[17],states[18],states[19],states[20],states[21],states[22],states[23],n_states,vibe[0],vibe[1],vibe[2],covariances[0],covariances[1],covariances[2],covariances[3],covariances[4],covariances[5],covariances[6],covariances[7],covariances[8],covariances[9],covariances[10],covariances[11],covariances[12],covariances[13],covariances[14],covariances[15],covariances[16],covariances[17],covariances[18],covariances[19],covariances[20],covariances[21],covariances[22],covariances[23],control_mode_flags,pos_horiz_accuracy,pos_vert_accuracy,mag_test_ratio,vel_test_ratio,pos_test_ratio,hgt_test_ratio,tas_test_ratio,hagl_test_ratio,beta_test_ratio,time_slip,gps_check_fail_flags,filter_fault_flags,innovation_check_flags,solution_status_flags,nan_flags,health_flags,timeout_flags,pre_flt_fail
711776971,0.99574727,0.014193898,-0.0035887721,-0.090957075,0.0037359544,-0.0048247627,-0.00061705796,0.0067312843,0.037672304,5.970038e-05,-2.1592284e-06,-2.1708927e-06,6.7438054e-06,0.0010910168,0.002149711,4.5265915e-06,0.11935977,-9.373766e-10,0.2315808,0.0,0.0,0.0,0.0,0.0,0.0,1.2141288e-10,1.6663462e-05,0.00015038422,5.888118e-07,8.808326e-06,8.787635e-06,3.5515786e-05,0.00031131756,0.0003119856,0.0010509861,99.99506,99.99506,0.00055654574,8.972502e-12,8.979404e-12,1.8074285e-11,1.8242243e-07,1.8193538e-07,1e-08,0.0,0.0,0.0,0.0,0.0,0.0,0.0,0.0,1051,14.141787,0.023591222,0.002423214,0.0,0.00021811777,0.00012275837,0.0,7.6953365e-05,0.0,0.000152,0,0,0,367,0,0,0,0
711976949,0.9957458,0.014236707,-0.0035727709,-0.09096639,0.0011898433,-0.0023210808,-0.0008048878,0.006713561,0.03776211,-9.96956e-05,-2.2196111e-06,-2.222507e-06,6.7466417e-06,0.0010909502,0.0021497996,4.5115094e-06,0.11935977,-9.373766e-10,0.2315808,0.0,0.0,0.0,0.0,0.0,0.0,1.2881976e-10,1.6749702e-05,0.00013232684,5.887042e-07,8.78613e-06,8.765387e-06,3.549905e-05,0.00026976198,0.0002704385,0.0010620392,99.99504,99.99504,0.0005569619,8.955561e-12,8.9624514e-12,1.8070746e-11,1.8242328e-07,1.8193623e-07,1.0000107e-08,0.0,0.0,0.0,0.0,0.0,0.0,0.0,0.0,1051,14.141785,0.02360004,0.002807092,0.0,0.00021811777,0.00016401047,0.0,8.944982e-05,0.0,0.000129,0,0,0,367,0,0,0,0
712180946,0.995746,0.014341757,-0.003492747,-0.090950094,-0.004226812,0.0035767057,-0.0017995731,0.005276557,0.039315455,-0.00026753798,-2.332505e-06,-2.3440218e-06,6.7563324e-06,0.0010908993,0.0021498753,4.4638778e-06,0.11935977,-9.373766e-10,0.2315808,0.0,0.0,0.0,0.0,0.0,0.0,1.2825843e-10,1.6293605e-05,0.00012931699,5.8853936e-07,8.7888e-06,8.768062e-06,3.550188e-05,0.00027769327,0.00027835948,0.0010355565,99.99502,99.99502,0.00051803933,8.958123e-12,8.965115e-12,1.8071178e-11,1.8242436e-07,1.8193731e-07,1.0000033e-08,0.0,0.0,0.0,0.0,0.0,0.0,0.0,0.0,1051,14.141784,0.022760477,0.0024124105,0.0,0.00021811777,0.00051733974,0.0,8.253076e-05,0.0,0.000121,0,0,0,367,0,0,0,0
712385617,0.99574775,0.014296254,-0.00356731,-0.0909367,-0.0026952277,0.0016619262,-0.0015774615,0.005081319,0.039455272,-0.00047707724,-2.3087873e-06,-2.2930556e-06,6.7543e-06,0.001090906,0.0021498674,4.4290355e-06,0.11935977,-9.373766e-10,0.2315808,0.0,0.0,0.0,0.0,0.0,0.0,1.2873666e-10,1.6423686e-05,0.0002376458,5.8881074e-07,8.8100405e-06,8.789342e-06,3.5541667e-05,0.00032265123,0.0003233377,0.0010595982,99.995,99.995,0.0005348706,8.9758695e-12,8.982936e-12,1.8079331e-11,1.8242542e-07,1.8193838e-07,1.0000148e-08,0.0,0.0,0.0,0.0,0.0,0.0,0.0,0.0,1051,14.141782,0.023127269,0.0026542663,0.0,0.00021811777,0.00087643886,0.0,6.8554946e-05,0.0,-2e-06,0,0,0,367,0,0,0,0
712589645,0.99574894,0.0142893335,-0.0036422387,-0.09092112,0.0011243578,0.0003719572,-0.0011111738,0.0060233856,0.03930821,-0.0005598363,-2.2978975e-06,-2.2225672e-06,6.7586834e-06,0.0010908749,0.0021498518,4.358261e-06,0.11935977,-9.373766e-10,0.2315808,0.0,0.0,0.0,0.0,0.0,0.0,1.3317536e-10,1.6534175e-05,0.00017305573,5.881837e-07,8.7945555e-06,8.773869e-06,3.548917e-05,0.00029370785,0.0002943882,0.001051463,99.99498,99.99498,0.0005282622,8.9661e-12,8.97318e-12,1.8070054e-11,1.8242616e-07,1.8193911e-07,1e-08,0.0,0.0,0.0,0.0,0.0,0.0,0.0,0.0,1051,14.141781,0.022983955,0.00277027,0.0,0.00021811777,0.0011494776,0.0,6.677789e-05,0.0,2.5e-05,0,0,0,367,0,0,0,0
712897609,0.9957478,0.014415934,-0.0034602378,-0.090920135,-0.005852702,0.0075721284,-0.0008598753,0.0038912653,0.042019572,-0.0005093989,-2.4026976e-06,-2.3676391e-06,6.7729798e-06,0.0010907635,0.002149948,4.245911e-06,0.11935977,-9.373766e-10,0.2315808,0.0,0.0,0.0,0.0,0.0,0.0,1.3822118e-10,1.710491e-05,0.00013467776,5.881393e-07,8.790992e-06,8.770384e-06,3.5501842e-05,0.00028970657,0.00029038647,0.0010370067,99.99495,99.99495,0.00051465444,8.964508e-12,8.971681e-12,1.807246e-11,1.8242766e-07,1.819406e-07,1e-08,0.0,0.0,0.0,0.0,0.0,0.0,0.0,0.0,1051,14.141779,0.022685997,0.001527566,0.0,0.00021811777,0.0010451849,0.0,5.8692138e-05,0.0,-1e-05,0,0,0,367,0,0,0,0
713097776,0.9957529,0.014300526,-0.0035152393,-0.09088207,-0.0014424546,0.0012246307,-0.0016410206,0.0041611483,0.041654367,-0.0005559394,-2.302459e-06,-2.252527e-06,6.775208e-06,0.0010907697,0.0021499435,4.1986855e-06,0.11935977,-9.373766e-10,0.2315808,0.0,0.0,0.0,0.0,0.0,0.0,1.3641954e-10,1.7723754e-05,0.00011928335,5.8815283e-07,8.7836825e-06,8.763128e-06,3.55421e-05,0.0002756418,0.00027632384,0.0010318363,99.99493,99.99493,0.0005080674,8.958408e-12,8.965618e-12,1.8080655e-11,1.8242872e-07,1.8194167e-07,1.0000037e-08,0.0,0.0,0.0,0.0,0.0,0.0,0.0,0.0,1051,14.141777,0.02254035,0.0032053038,0.0,0.00021811777,0.0011136772,0.0,5.822293e-05,0.0,0.000157,0,0,0,367,0,0,0,0
713301629,0.9957524,0.014316257,-0.0034547145,-0.09088652,-0.0012236952,0.0014784655,-0.0011976925,0.0040552593,0.041783288,-0.00069051917,-2.2928887e-06,-2.2396512e-06,6.781721e-06,0.0010907679,0.0021499468,4.1222493e-06,0.11935977,-9.373766e-10,0.2315808,0.0,0.0,0.0,0.0,0.0,0.0,1.340487e-10,1.695923e-05,0.000103179336,5.8811486e-07,8.830729e-06,8.810202e-06,3.5545094e-05,0.00037404048,0.00037471653,0.0010505132,99.99491,99.99491,0.00053099764,8.997518e-12,9.004648e-12,1.8081196e-11,1.8242983e-07,1.8194278e-07,1.0000036e-08,0.0,0.0,0.0,0.0,0.0,0.0,0.0,0.0,1051,14.141776,0.023043387,0.0011357669,0.0,0.00021811777,0.00139626,0.0,7.936493e-05,0.0,9e-06,0,0,0,367,0,0,0,0
713502561,0.99575377,0.014278302,-0.0035787418,-0.0908721,-0.0004868095,0.00078844454,-0.0017478043,0.0040594796,0.041770287,-0.00063826994,-2.2796314e-06,-2.225526e-06,6.781842e-06,0.0010907656,0.0021499528,4.0348414e-06,0.11935977,-9.373766e-10,0.2315808,0.0,0.0,0.0,0.0,0.0,0.0,1.3308968e-10,1.7031482e-05,0.00020557467,5.878759e-07,8.813657e-06,8.793027e-06,3.5528297e-05,0.00034004927,0.0003407169,0.0010352709,99.99489,99.99489,0.0005182117,8.98276e-12,8.989825e-12,1.807756e-11,1.824309e-07,1.8194385e-07,1e-08,0.0,0.0,0.0,0.0,0.0,0.0,0.0,0.0,1051,14.141774,0.022764264,0.006888436,0.0,0.00021811777,0.0013098317,0.0,7.730024e-05,0.0,0.000141,0,0,0,367,0,0,0,0
713702570,0.9957517,0.014309222,-0.003494747,-0.090893686,0.00039781485,0.000494414,-0.0023061421,0.004037705,0.04176801,-0.0007612083,-2.27286e-06,-2.2260342e-06,6.7896954e-06,0.0010907608,0.0021499486,3.942136e-06,0.11935977,-9.373766e-10,0.2315808,0.0,0.0,0.0,0.0,0.0,0.0,1.3840856e-10,1.7486114e-05,0.00016208379,5.8823485e-07,8.789902e-06,8.769348e-06,3.5568795e-05,0.0002952668,0.0002959338,0.0010272703,99.994865,99.994865,0.0005091552,8.965834e-12,8.972867e-12,1.8087597e-11,1.8243169e-07,1.8194464e-07,1e-08,0.0,0.0,0.0,0.0,0.0,0.0,0.0,0.0,1051,14.141772,0.022564469,0.0027519614,0.0,0.00021811777,0.0015613757,0.0,8.0805956e-05,0.0,0.000151,0,0,0,367,0,0,0,0
713906451,0.9957576,0.014252655,-0.003634347,-0.09083197,0.006461034,-0.0031947554,-0.0027182358,0.006991654,0.04013903,-0.00095502735,-2.2126485e-06,-2.0739537e-06,6.787583e-06,0.001090936,0.002149896,3.842291e-06,0.11935977,-9.373766e-10,0.2315808,0.0,0.0,0.0,0.0,0.0,0.0,1.386342e-10,1.7682501e-05,0.0001371619,5.876663e-07,8.8125735e-06,8.7919725e-06,3.5551468e-05,0.00034230892,0.00034295747,0.0010219573,99.99485,99.99485,0.00050231564,8.985649e-12,8.992586e-12,1.8083753e-11,1.8243271e-07,1.8194565e-07,1e-08,0.0,0.0,0.0,0.0,0.0,0.0,0.0,0.0,1051,14.141771,0.022412399,0.0031198019,0.0,0.00021811777,0.0019582275,0.0,5.3602515e-05,0.0,3.2e-05,0,0,0,367,0,0,0,0
714110595,0.995757,0.0142829595,-0.0035595302,-0.0908378,0.002594325,-0.0013161995,-0.0025448862,0.0068159387,0.04022946,-0.0011105519,-2.2379006e-06,-2.161609e-06,6.7931524e-06,0.001090919,0.0021498918,3.7210345e-06,0.11935977,-9.373766e-10,0.2315808,0.0,0.0,0.0,0.0,0.0,0.0,1.3783788e-10,1.7258564e-05,0.00012064308,5.8813725e-07,8.798527e-06,8.777891e-06,3.5610326e-05,0.0003133371,0.00031400475,0.0010497519,99.99483,99.99483,0.0005299477,8.974134e-12,8.98104e-12,1.8095747e-11,1.8243382e-07,1.8194676e-07,1e-08,0.0,0.0,0.0,0.0,0.0,0.0,0.0,0.0,1051,14.141769,0.023020593,0.0030259597,0.0,0.00021811777,0.0022804472,0.0,0.000135791,0.0,0.000173,0,0,0,367,0,0,0,0
714314552,0.9957568,0.014379358,-0.0034337176,-0.090828516,-0.00489833,0.003999179,-0.001983134,0.0042270976,0.042066675,-0.0011490232,-2.291271e-06,-2.3047903e-06,6.8023783e-06,0.0010909232,0.0021498725,3.6046924e-06,0.11935977,-9.373766e-10,0.2315808,0.0,0.0,0.0,0.0,0.0,0.0,1.361049e-10,1.6976184e-05,0.0001157888,5.878766e-07,8.79445e-06,8.7738745e-06,3.5591736e-05,0.00030448765,0.00030519435,0.0010849122,99.994804,99.994804,0.00057199766,8.970455e-12,8.97744e-12,1.8091532e-11,1.8243489e-07,1.8194783e-07,1.0000111e-08,0.0,0.0,0.0,0.0,0.0,0.0,0.0,0.0,1051,14.141768,0.023916472,0.0011785432,0.0,0.00021811777,0.0022647104,0.0,6.117658e-05,0.0,0.000132,0,0,0,367,0,0,0,0
714515418,0.9957612,0.014370537,-0.003481199,-0.090780206,-0.0024793162,0.0023042362,-0.0020363512,0.0042316862,0.04219133,-0.0009833418,-2.2644883e-06,-2.2353518e-06,6.7992014e-06,0.0010909052,0.0021498972,3.4477416e-06,0.11935977,-9.373766e-10,0.2315808,0.0,0.0,0.0,0.0,0.0,0.0,1.3156543e-10,1.7115228e-05,0.00023904275,5.879236e-07,8.780534e-06,8.759991e-06,3.5630863e-05,0.00027688246,0.00027756186,0.0010302169,99.99478,99.99478,0.0005210751,8.958241e-12,8.965265e-12,1.80993e-11,1.8243595e-07,1.8194889e-07,1e-08,0.0,0.0,0.0,0.0,0.0,0.0,0.0,0.0,1051,14.141767,0.02282707,0.0022531096,0.0,0.00021811777,0.0020182917,0.0,3.1431242e-05,0.0,0.000199,0,0,0,367,0,0,0,0
714719228,0.99576247,0.014343712,-0.0034803103,-0.090771094,-0.0013486645,0.0011727215,-0.0017267768,0.0042839027,0.042245008,-0.00094445044,-2.2453676e-06,-2.1880817e-06,6.7976603e-06,0.0010909574,0.0021498892,3.3190029e-06,0.11935977,-9.373766e-10,0.2315808,0.0,0.0,0.0,0.0,0.0,0.0,1.367367e-10,1.8253138e-05,0.00020460988,5.878829e-07,8.76886e-06,8.748298e-06,3.5633228e-05,0.0002548531,0.00025553338,0.0010282397,99.99476,99.99476,0.0005159423,8.951305e-12,8.958308e-12,1.8101161e-11,1.8243679e-07,1.8194973e-07,1e-08,0.0,0.0,0.0,0.0,0.0,0.0,0.0,0.0,1051,14.141765,0.022714363,0.00091391493,0.0,0.00021811777,0.0019379362,0.0,6.5731925e-05,0.0,9e-06,0,0,0,367,0,0,0,0
714923391,0.99576485,0.014396528,-0.003462865,-0.0907365,-0.0016773863,0.0025008512,-0.0022396846,0.0039255195,0.042791605,-0.0010827737,-2.2579648e-06,-2.1924068e-06,6.8037193e-06,0.0010909466,0.0021499058,3.2281757e-06,0.11935977,-9.373766e-10,0.2315808,0.0,0.0,0.0,0.0,0.0,0.0,1.3911282e-10,1.8317438e-05,0.00018222655,5.879121e-07,8.812788e-06,8.7922535e-06,3.5671444e-05,0.00034448472,0.00034519014,0.0010904308,99.99475,99.99475,0.0005831885,8.988835e-12,8.995803e-12,1.810861e-11,1.8243782e-07,1.8195074e-07,1.0000111e-08,0.0,0.0,0.0,0.0,0.0,0.0,0.0,0.0,1051,14.141765,0.024149297,0.00228695,0.0,0.00021811777,0.002119336,0.0,0.000100336976,0.0,0.000172,0,0,0,367,0,0,0,0
715127568,0.995764,0.01439003,-0.0034912243,-0.09074573,-0.0013041294,0.00080978806,-0.0010317235,0.003945622,0.042770196,-0.00094407395,-2.2351442e-06,-2.1622711e-06,6.813284e-06,0.001090954,0.002149913,3.0741696e-06,0.11935977,-9.373766e-10,0.2315808,0.0,0.0,0.0,0.0,0.0,0.0,1.4781533e-10,1.919114e-05,0.00017730289,5.878388e-07,8.80989e-06,8.789364e-06,3.5671885e-05,0.000341386,0.00034206195,0.0010392048,99.99473,99.99473,0.00053368165,8.986413e-12,8.993369e-12,1.8108206e-11,1.8243892e-07,1.8195185e-07,1.0000037e-08,0.0,0.0,0.0,0.0,0.0,0.0,0.0,0.0,1051,14.141763,0.023101551,0.017634135,0.0,0.00021811777,0.0019200436,0.0,1.989287e-05,0.0,0.00033,0,0,0,367,0,0,0,0
715327212,0.99576104,0.01436773,-0.0035395732,-0.09078026,0.002275929,-0.0010471381,0.000108043576,0.005392399,0.04207887,-0.0006813445,-2.2140803e-06,-2.0862763e-06,6.817035e-06,0.0010909444,0.0021499374,2.9675132e-06,0.11935977,-9.373766e-10,0.2315808,0.0,0.0,0.0,0.0,0.0,0.0,1.4030913e-10,1.801673e-05,0.00016777472,5.8827925e-07,8.792508e-06,8.77198e-06,3.5709003e-05,0.00030465025,0.00030531696,0.0010274965,99.994705,99.994705,0.000517084,8.971482e-12,8.978401e-12,1.8115395e-11,1.8243999e-07,1.8195291e-07,1e-08,0.0,0.0,0.0,0.0,0.0,0.0,0.0,0.0,1051,14.141761,0.022739481,0.0028990305,0.0,0.00021811777,0.00139816,0.0,1.0797997e-05,0.0,-8e-06,0,0,0,367,0,0,0,0
715528229,0.99575967,0.014452876,-0.0035144673,-0.09078226,-0.00047222793,0.003169766,0.0010569659,0.005155435,0.043238115,-0.00035913583,-2.28315e-06,-2.1333676e-06,6.8260038e-06,0.0010909535,0.002149895,2.9019789e-06,0.11935977,-9.373766e-10,0.2315808,0.0,0.0,0.0,0.0,0.0,0.0,1.3225246e-10,1.8007051e-05,0.00029724016,5.880257e-07,8.769795e-06,8.749258e-06,3.568903e-05,0.00025848855,0.00025919848,0.0010669602,99.99468,99.99468,0.0005562481,8.951561e-12,8.95852e-12,1.8110614e-11,1.8244101e-07,1.8195394e-07,1.00001065e-08,0.0,0.0,0.0,0.0,0.0,0.0,0.0,0.0,1051,14.14176,0.023584913,0.0024601226,0.0,0.00021811777,0.00079564005,0.0,2.122264e-05,0.0,0.00021,0,0,0,367,0,0,0,0
715732158,0.99575907,0.01447163,-0.0034067451,-0.090790406,-0.00029988942,0.0027461152,0.0007735545,0.0050888495,0.04335179,-9.881479e-05,-2.2418242e-06,-2.1252188e-06,6.8299696e-06,0.001090959,0.0021498757,2.8849377e-06,0.11935977,-9.373766e-10,0.2315808,0.0,0.0,0.0,0.0,0.0,0.0,1.2561532e-10,1.7078977e-05,0.00021332885,5.883518e-07,8.795238e-06,8.774835e-06,3.572699e-05,0.0003103563,0.0003110384,0.0010378769,99.99467,99.99467,0.000530231,8.974868e-12,8.981847e-12,1.811969e-11,1.8244192e-07,1.8195485e-07,1e-08,0.0,0.0,0.0,0.0,0.0,0.0,0.0,0.0,1051,14.141759,0.023026746,0.0013161701,0.0,0.00021811777,0.00020291367,0.0,4.66645e-05,0.0,0.000139,0,0,0,367,0,0,0,0
715932202,0.9957576,0.0144825615,-0.0033206,-0.09080813,-0.000878809,0.0018177349,0.00075542426,0.005122744,0.043372367,0.00010070814,-2.207864e-06,-2.1087858e-06,6.8272516e-06,0.0010909775,0.0021498501,2.8962284e-06,0.11935977,-9.373766e-10,0.2315808,0.0,0.0,0.0,0.0,0.0,0.0,1.3979115e-10,1.8342325e-05,0.0001650407,5.883417e-07,8.794325e-06,8.774002e-06,3.57067e-05,0.0003095551,0.00031025195,0.00104981,99.994644,99.994644,0.00053930504,8.975158e-12,8.982107e-12,1.8114938e-11,1.8244292e-07,1.8195583e-07,1.0000112e-08,0.0,0.0,0.0,0.0,0.0,0.0,0.0,0.0,1051,14.141757,0.023222942,0.0017767055,0.0,0.00021811777,0.0001717023,0.0,6.183631e-05,0.0,0.000181,0,0,0,367,0,0,0,0
716136231,0.9957579,0.014686897,-0.0032000577,-0.090775855,-0.0068425983,0.011337455,0.0012726734,0.0037220642,0.04594024,0.00027521932,-2.366388e-06,-2.2269319e-06,6.8300646e-06,0.001091012,0.0021497724,2.8852335e-06,0.11935977,-9.373766e-10,0.2315808,0.0,0.0,0.0,0.0,0.0,0.0,1.3045637e-10,1.8198349e-05,0.00013668687,5.8814646e-07,8.784229e-06,8.763874e-06,3.570658e-05,0.0002912032,0.00029192126,0.001065088,99.99462,99.99462,0.0005554389,8.966256e-12,8.973164e-12,1.811429e-11,1.8244403e-07,1.8195693e-07,1.0000109e-08,0.0,0.0,0.0,0.0,0.0,0.0,0.0,0.0,1051,14.141755,0.023567751,0.00057483895,0.0,0.00021811777,0.0004958234,0.0,6.9539e-05,0.0,0.000212,0,0,0,367,0,0,0,0
716340194,0.9957574,0.014589794,-0.0032848807,-0.09079449,-0.0045663645,0.0072574196,0.001179794,0.00346684,0.04638709,0.00044182927,-2.2611728e-06,-2.1356016e-06,6.825674e-06,0.0010909712,0.0021498455,2.9753653e-06,0.11935977,-9.373766e-10,0.2315808,0.0,0.0,0.0,0.0,0.0,0.0,1.3230117e-10,1.8292763e-05,0.00011885902,5.886326e-07,8.809489e-06,8.789237e-06,3.5742905e-05,0.00034275488,0.00034346085,0.0010404531,99.994606,99.994606,0.0005317832,8.986766e-12,8.993784e-12,1.8121225e-11,1.8244506e-07,1.8195797e-07,1e-08,0.0,0.0,0.0,0.0,0.0,0.0,0.0,0.0,1051,14.141754,0.023060426,0.0020161734,0.0,0.00021811777,0.0009073618,0.0,8.5509775e-05,0.0,0.000175,0,0,0,367,0,0,0,0
716544177,0.9957607,0.0144932205,-0.0034115,-0.090769716,-0.0024155509,0.0032663762,0.00065643684,0.0036278262,0.046205387,0.00040035136,-2.1827038e-06,-2.0474836e-06,6.8246322e-06,0.0010909154,0.0021499093,3.0473966e-06,0.11935977,-9.373766e-10,0.2315808,0.0,0.0,0.0,0.0,0.0,0.0,1.2045423e-10,1.6971006e-05,0.00010630608,5.8845285e-07,8.790238e-06,8.769886e-06,3.5742443e-05,0.00030068486,0.00030138812,0.0010300813,99.99458,99.99458,0.0005197381,8.969571e-12,8.97655e-12,1.8120463e-11,1.824461e-07,1.8195902e-07,1e-08,0.0,0.0,0.0,0.0,0.0,0.0,0.0,0.0,1051,14.141752,0.022797765,0.0052629993,0.0,0.00021811777,0.00082165835,0.0,8.7627515e-05,0.0,0.000158,0,0,0,367,0,0,0,0
716744802,0.9957644,0.0144553995,-0.003419139,-0.0907345,-0.0018015411,0.00095434044,0.0009169918,0.003697584,0.0461885,0.00035930873,-2.1469561e-06,-2.0006587e-06,6.822126e-06,0.0010907357,0.0021499698,3.0939839e-06,0.11935977,-9.373766e-10,0.2315808,0.0,0.0,0.0,0.0,0.0,0.0,1.1746498e-10,1.6951784e-05,0.0002078827,5.8851856e-07,8.777094e-06,8.756648e-06,3.577703e-05,0.00025918195,0.000259893,0.001044428,99.99456,99.99456,0.0005307099,8.951499e-12,8.9584035e-12,1.8123935e-11,1.8244245e-07,1.8195544e-07,1.0000078e-08,0.0,0.0,0.0,0.0,0.0,0.0,0.0,0.0,1051,14.141751,0.023037143,0.0020697548,0.0,0.00021811777,0.0007081272,0.0,8.4580475e-05,0.0,-1.7e-05,0,0,0,367,0,0,0,0
716948951,0.9957603,0.014484452,-0.0034147971,-0.09077377,-0.0034705834,0.004163653,0.0009999517,0.0027647621,0.047417335,0.0004958967,-2.1847623e-06,-2.0329505e-06,6.828269e-06,0.0010910586,0.0021495998,3.1535312e-06,0.11935977,-9.373766e-10,0.2315808,0.0,0.0,0.0,0.0,0.0,0.0,1.1661981e-10,1.6268952e-05,0.00018179257,5.8870586e-07,8.817329e-06,8.796828e-06,3.5775756e-05,0.00032754889,0.00032824918,0.0010501246,99.994545,99.994545,0.00053087674,8.978628e-12,8.985522e-12,1.8123015e-11,1.8243969e-07,1.8195273e-07,1.000011e-08,0.0,0.0,0.0,0.0,0.0,0.0,0.0,0.0,1051,14.14175,0.023040762,0.0013183258,0.0,0.00021811777,0.0009589935,0.0,7.813039e-05,0.0,0.000131,0,0,0,367,0,0,0,0
717152897,0.99576104,0.014423266,-0.0035297498,-0.09077155,-0.0021235466,0.0019499061,0.0008153478,0.0028881435,0.047388207,0.0004399526,-2.1472922e-06,-1.9717895e-06,6.818481e-06,0.0010908468,0.0021497419,3.2245612e-06,0.11935977,-9.373766e-10,0.2315808,0.0,0.0,0.0,0.0,0.0,0.0,1.1311346e-10,1.6070486e-05,0.00015025504,5.8911553e-07,8.809273e-06,8.788704e-06,3.5812063e-05,0.00029958595,0.00030026457,0.0010209527,99.99452,99.99452,0.0004987741,8.966955e-12,8.973857e-12,1.812987e-11,1.8243938e-07,1.8195243e-07,1e-08,0.0,0.0,0.0,0.0,0.0,0.0,0.0,0.0,1051,14.141748,0.022333251,0.01718464,0.0,0.00021811777,0.00090193824,0.0,8.691168e-05,0.0,7.7e-05,0,0,0,367,0,0,0,0
717352956,0.995761,0.014358199,-0.0037032946,-0.09077584,0.0021507246,-0.0009692471,0.0017226283,0.004021895,0.04652661,0.0005319411,-2.103101e-06,-1.8921469e-06,6.8116424e-06,0.0010906986,0.002149828,3.2851974e-06,0.11935977,-9.373766e-10,0.2315808,0.0,0.0,0.0,0.0,0.0,0.0,1.3594963e-10,1.6822256e-05,0.00013204305,5.8903544e-07,8.802242e-06,8.78156e-06,3.5790617e-05,0.00028380883,0.00028448986,0.001045197,99.9945,99.9945,0.00052092475,8.958902e-12,8.965733e-12,1.8124752e-11,1.824403e-07,1.8195335e-07,1.0000108e-08,0.0,0.0,0.0,0.0,0.0,0.0,0.0,0.0,1051,14.1417465,0.022823775,0.002397965,0.0,0.00021811777,0.0010056816,0.0,8.104145e-05,0.0,0.000137,0,0,0,367,0,0,0,0
717552984,0.99575996,0.014461728,-0.0036063618,-0.09077485,-0.0011998512,0.002965239,0.0015919764,0.0033135996,0.047478005,0.0006904879,-2.1594428e-06,-1.9826632e-06,6.8100426e-06,0.0010907137,0.0021498161,3.3498197e-06,0.11935977,-9.373766e-10,0.2315808,0.0,0.0,0.0,0.0,0.0,0.0,1.253222e-10,1.6839791e-05,0.000119399505,5.889232e-07,8.819474e-06,8.798803e-06,3.5769383e-05,0.00031759575,0.00031827774,0.0010595056,99.994484,99.994484,0.0005392529,8.972544e-12,8.979344e-12,1.8119669e-11,1.8244135e-07,1.8195442e-07,1.0000037e-08,0.0,0.0,0.0,0.0,0.0,0.0,0.0,0.0,1051,14.141746,0.023221819,0.0014456281,0.0,0.00021811777,0.0013916504,0.0,8.909041e-05,0.0,0.000164,0,0,0,367,0,0,0,0
717754548,0.9957579,0.014414975,-0.0037535524,-0.09079923,-0.0001191859,0.0014971165,0.0017358433,0.0033580738,0.047478776,0.00068952807,-2.124253e-06,-1.9628628e-06,6.819661e-06,0.0010907176,0.0021498103,3.4669704e-06,0.11935977,-9.373766e-10,0.2315808,0.0,0.0,0.0,0.0,0.0,0.0,1.2482779e-10,1.6490312e-05,0.0002274171,5.8895364e-07,8.817671e-06,8.796979e-06,3.5767796e-05,0.00031287444,0.00031353778,0.0010245608,99.99446,99.99446,0.0005080929,8.970553e-12,8.9774195e-12,1.8118597e-11,1.8244246e-07,1.8195553e-07,1e-08,0.0,0.0,0.0,0.0,0.0,0.0,0.0,0.0,1051,14.141744,0.022540918,0.0027035186,0.0,0.00021811777,0.0014142786,0.0,9.779846e-05,0.0,0.000128,0,0,0,367,0,0,0,0
717955473,0.9957594,0.014181654,-0.0038459764,-0.09081503,0.0071461736,-0.011744847,0.0010460679,0.005844262,0.04331502,0.00068804435,-1.9039808e-06,-1.7752756e-06,6.821501e-06,0.0010896276,0.0021510646,3.5826758e-06,0.11935977,-9.373766e-10,0.2315808,0.0,0.0,0.0,0.0,0.0,0.0,1.3862825e-10,1.7061888e-05,0.00031700876,5.892162e-07,8.803474e-06,8.782715e-06,3.58009e-05,0.00026659394,0.0002672752,0.0010670953,99.99444,99.99444,0.0005513886,8.95032e-12,8.957055e-12,1.8123454e-11,1.8243993e-07,1.8195307e-07,1.00001465e-08,0.0,0.0,0.0,0.0,0.0,0.0,0.0,0.0,1051,14.141743,0.023481665,0.0029027835,0.0,0.00021811777,0.0013679734,0.0,9.6089214e-05,0.0,0.00023599999,0,0,0,367,0,0,0,0
718155439,0.9957629,0.014344181,-0.0037085093,-0.09075753,0.004727951,-0.0072373073,0.0012868844,0.0062287087,0.042653542,0.0006383783,-1.9968365e-06,-1.858966e-06,6.820523e-06,0.0010896958,0.0021509884,3.6660633e-06,0.11935977,-9.373766e-10,0.2315808,0.0,0.0,0.0,0.0,0.0,0.0,1.1920356e-10,1.5437852e-05,0.00026314426,5.8920574e-07,8.844857e-06,8.824107e-06,3.5837613e-05,0.00034932976,0.00034996885,0.0010468181,99.99442,99.99442,0.0005343772,8.985155e-12,8.991803e-12,1.813209e-11,1.8244077e-07,1.8195394e-07,1.00000745e-08,0.0,0.0,0.0,0.0,0.0,0.0,0.0,0.0,1051,14.141741,0.0231166,0.003031728,0.0,0.00021811777,0.0012628611,0.0,9.427678e-05,0.0,0.000219,0,0,0,367,0,0,0,0
718356942,0.99576014,0.014476266,-0.0036320745,-0.090768546,-0.00013703715,-0.0015245547,0.00204449,0.005251786,0.043595146,0.0007517353,-2.1015276e-06,-1.963003e-06,6.827705e-06,0.0010895915,0.0021510995,3.7310697e-06,0.11935977,-9.373766e-10,0.2315808,0.0,0.0,0.0,0.0,0.0,0.0,1.262465e-10,1.7191629e-05,0.0004072286,5.89067e-07,8.824705e-06,8.80404e-06,3.5816716e-05,0.0003097431,0.00031040466,0.0010401333,99.9944,99.9944,0.00052422757,8.971493e-12,8.978261e-12,1.8130409e-11,1.8244174e-07,1.819549e-07,1.0000037e-08,0.0,0.0,0.0,0.0,0.0,0.0,0.0,0.0,1051,14.14174,0.022896016,0.0065111415,0.0,0.00021811777,0.0015092454,0.0,8.9460096e-05,0.0,0.00012,0,0,0,367,0,0,0,0
718557041,0.9957611,0.0145043,-0.0037529836,-0.09074941,0.0037377777,0.00021623576,1.732524e-05,0.0061065773,0.043794144,0.00064322556,-2.1450232e-06,-1.9060141e-06,6.8201184e-06,0.0010897974,0.0021512865,3.797926e-06,0.11935977,-9.373766e-10,0.2315808,0.0,0.0,0.0,0.0,0.0,0.0,1.3123462e-10,1.8063192e-05,0.00031004,5.8934756e-07,8.808794e-06,8.788193e-06,3.5851994e-05,0.0002882278,0.0002889166,0.0010562326,99.99438,99.99438,0.00054024794,8.964245e-12,8.97114e-12,1.8136962e-11,1.824398e-07,1.8195303e-07,1.0000074e-08,0.0,0.0,0.0,0.0,0.0,0.0,0.0,0.0,1051,14.141738,0.023243234,0.0025464345,0.0,0.00021811777,0.0013173195,0.0,0.000112050184,0.0,0.000222,0,0,0,367,0,0,0,0
718760844,0.9957607,0.014489593,-0.003757753,-0.090755776,0.0017265973,0.0003391337,-0.00038327585,0.006197659,0.043801572,0.00039066924,-2.1365045e-06,-1.9456445e-06,6.821974e-06,0.0010897097,0.0021512692,3.8721637e-06,0.11935977,-9.373766e-10,0.2315808,0.0,0.0,0.0,0.0,0.0,0.0,1.3388769e-10,1.7896613e-05,0.00023863553,5.892011e-07,8.797777e-06,8.7772e-06,3.582974e-05,0.0002743868,0.00027507084,0.0010381003,99.994354,99.994354,0.0005241641,8.957075e-12,8.964056e-12,1.8131465e-11,1.8244032e-07,1.8195357e-07,1.0000034e-08,0.0,0.0,0.0,0.0,0.0,0.0,0.0,0.0,1051,14.141736,0.02289463,0.0053856336,0.0,0.00021811777,0.0008070835,0.0,9.993797e-05,0.0,-8e-06,0,0,0,367,0,0,0,0
718965748,0.9957554,0.014515918,-0.0037900195,-0.09080828,-0.0002778973,0.004916671,-0.0003995377,0.0056646494,0.04545065,0.00024285079,-2.2031772e-06,-2.00904e-06,6.8266063e-06,0.0010896177,0.0021513696,3.89926e-06,0.11935977,-9.373766e-10,0.2315808,0.0,0.0,0.0,0.0,0.0,0.0,1.3671902e-10,1.9018198e-05,0.00033739462,5.895021e-07,8.832357e-06,8.81176e-06,3.582693e-05,0.00034909963,0.000349773,0.0010365363,99.99434,99.99434,0.0005208177,8.986618e-12,8.99367e-12,1.8130135e-11,1.8244131e-07,1.8195458e-07,1.0000036e-08,0.0,0.0,0.0,0.0,0.0,0.0,0.0,0.0,1051,14.141735,0.02282143,0.0017811875,0.0,0.00021811777,0.0005042504,0.0,9.038534e-05,0.0,0.000129,0,0,0,367,0,0,0,0
719409782,0.9957426,0.014326962,-0.003999401,-0.090969354,0.009347696,-0.004473811,0.00079278066,0.008987,0.042860366,1.710824e-05,-2.0417572e-06,-1.8586082e-06,6.829297e-06,0.0010900784,0.0021509961,3.989428e-06,0.11935977,-9.373766e-10,0.2315808,0.0,0.0,0.0,0.0,0.0,0.0,1.0042344e-09,3.4459954e-05,0.00062999176,5.9044436e-07,8.8132765e-06,8.792684e-06,3.582341e-05,0.0003166202,0.0003172824,0.0010363674,99.99429,99.99429,0.0005181578,8.97619e-12,8.9831545e-12,1.8129822e-11,1.8244279e-07,1.8195604e-07,1e-08,0.0,0.0,0.0,0.0,0.0,0.0,0.0,0.0,1051,14.141732,0.022763079,0.0025815205,0.0,0.00021811777,3.510188e-05,0.0,5.8326e-05,0.0,0.000163,0,0,0,367,0,0,0,0
719613815,0.99575853,0.014590141,-0.0038673014,-0.090758964,-0.0024488757,0.006046076,-0.0012315392,0.007950236,0.04485375,-0.0001303268,-2.2199965e-06,-2.0546995e-06,6.8124173e-06,0.0010899578,0.0021511263,3.9398133e-06,0.11935977,-9.373766e-10,0.2315808,0.0,0.0,0.0,0.0,0.0,0.0,9.375188e-10,3.8377544e-05,0.0008828228,5.8940356e-07,8.806181e-06,8.785536e-06,3.5822086e-05,0.00030457237,0.0003052489,0.0010659625,99.99427,99.99427,0.0005592615,8.971048e-12,8.977992e-12,1.81286e-11,1.8244383e-07,1.8195706e-07,1e-08,0.0,0.0,0.0,0.0,0.0,0.0,0.0,0.0,1051,14.14173,0.023648709,0.019401213,0.0,0.00021811777,0.00026804287,0.0,7.51035e-05,0.0,0.000196,0,0,0,367,0,0,0,0
719813807,0.9957666,0.014582134,-0.0038519227,-0.09067229,0.00026645142,0.006648754,-0.00060848944,0.0077380044,0.046184357,-0.00019833552,-2.2240602e-06,-2.0531836e-06,6.7792707e-06,0.0010899472,0.0021511295,3.9228034e-06,0.11935977,-9.373766e-10,0.2315808,0.0,0.0,0.0,0.0,0.0,0.0,8.004045e-10,3.8775288e-05,0.00080232223,5.896199e-07,8.775505e-06,8.755034e-06,3.585604e-05,0.00024438443,0.00024509217,0.0010626985,99.99425,99.99425,0.000560649,8.945475e-12,8.95265e-12,1.8134744e-11,1.8244488e-07,1.8195813e-07,1.0000107e-08,0.0,0.0,0.0,0.0,0.0,0.0,0.0,0.0,1051,14.141728,0.023678027,0.0024948365,0.0,0.00021811777,0.00038125445,0.0,6.187787e-05,0.0,0.000188,0,0,0,367,0,0,0,0
720017757,0.99577326,0.014451951,-0.0038468386,-0.090620555,0.00326683,-0.00054552115,-0.0011866979,0.008583215,0.044841617,-0.00021557597,-2.089864e-06,-2.0155087e-06,6.7662545e-06,0.0010899584,0.0021511111,3.9479833e-06,0.11935977,-9.373766e-10,0.2315808,0.0,0.0,0.0,0.0,0.0,0.0,8.365977e-10,4.3249027e-05,0.0008717789,5.897346e-07,8.76432e-06,8.743851e-06,3.5891004e-05,0.00021997318,0.00022069315,0.0010813922,99.994225,99.994225,0.0005871307,8.9361634e-12,8.943298e-12,1.814122e-11,1.8244594e-07,1.819592e-07,1.0000072e-08,0.0,0.0,0.0,0.0,0.0,0.0,0.0,0.0,1051,14.141727,0.02423078,0.017984552,0.0,0.00021811777,0.0004218882,0.0,7.7105185e-05,0.0,0.000137,0,0,0,367,0,0,0,0
720514446,0.9958004,0.014664699,-0.0038089277,-0.090289086,-0.0050938204,0.011627872,-0.0039065657,0.006165016,0.05207469,-0.00049225974,-2.2770341e-06,-2.2221652e-06,6.7106894e-06,0.0010892712,0.0021516234,3.829872e-06,0.11935977,-9.373766e-10,0.2315808,0.0,0.0,0.0,0.0,0.0,0.0,8.684819e-09,0.000115585215,0.0020587288,5.881863e-07,8.792972e-06,8.772629e-06,3.585185e-05,0.0002841024,0.00028479623,0.0010413209,99.99419,99.99419,0.000552351,8.964231e-12,8.971695e-12,1.8132437e-11,1.8244802e-07,1.8196133e-07,1e-08,0.0,0.0,0.0,0.0,0.0,0.0,0.0,0.0,1051,14.141725,0.023502149,0.016721683,0.0,0.00021811777,0.0010120404,0.0,9.858532e-05,0.0,2.7e-05,0,0,0,367,0,0,0,0
720718590,0.99579245,0.014616018,-0.0035103129,-0.09039602,0.0015216549,0.0043845293,-0.0071035703,0.006525337,0.051589154,-0.0008252795,-2.115926e-06,-2.1420813e-06,6.7043384e-06,0.0010893468,0.002151566,3.7840978e-06,0.11935977,-9.373766e-10,0.2315808,0.0,0.0,0.0,0.0,0.0,0.0,1.4238666e-08,0.00017670648,0.0034846377,5.893664e-07,8.7962435e-06,8.776202e-06,3.590552e-05,0.0002933124,0.00029401854,0.0010652444,99.99418,99.99418,0.0005633608,8.967431e-12,8.974776e-12,1.8143025e-11,1.8244911e-07,1.8196242e-07,1.0000148e-08,0.0,0.0,0.0,0.0,0.0,0.0,0.0,0.0,1051,14.141724,0.023735223,0.0020089324,0.0,0.00021811777,0.0015213005,0.0,0.00011633762,0.0,0.00017099999,0,0,0,367,0,0,0,0
720918611,0.99579746,0.014601451,-0.003378,-0.090348564,-0.00904247,0.006686455,-0.00136242,0.0046708155,0.053153533,-0.00078369095,-2.1836881e-06,-2.3172602e-06,6.6884495e-06,0.0010893376,0.0021515074,3.6696931e-06,0.11935977,-9.373766e-10,0.2315808,0.0,0.0,0.0,0.0,0.0,0.0,1.5839339e-08,0.00021785153,0.0043481495,5.891096e-07,8.781511e-06,8.76125e-06,3.588226e-05,0.00026571317,0.00026641876,0.0010451515,99.99416,99.99416,0.00053574436,8.954878e-12,8.962059e-12,1.8137476e-11,1.8245018e-07,1.8196349e-07,1.0000037e-08,0.0,0.0,0.0,0.0,0.0,0.0,0.0,0.0,1051,14.141723,0.023146152,0.0014479533,0.0,0.00021811777,0.0015819415,0.0,6.805273e-05,0.0,0.000191,0,0,0,367,0,0,0,0
721119398,0.9958042,0.0144293215,-0.0034591996,-0.09029856,-0.0041666706,0.0048130807,-0.0023689452,0.0041171904,0.05348006,-0.0009786072,-2.1244634e-06,-2.2317254e-06,6.6873104e-06,0.0010893428,0.0021515433,3.5868272e-06,0.11935977,-9.373766e-10,0.2315808,0.0,0.0,0.0,0.0,0.0,0.0,1.4889724e-08,0.00023600763,0.004945252,5.8903646e-07,8.810468e-06,8.790118e-06,3.5916884e-05,0.00032568592,0.00032640243,0.0010675373,99.99415,99.99415,0.00056228595,8.978863e-12,8.98606e-12,1.8143797e-11,1.8245125e-07,1.8196455e-07,1e-08,0.0,0.0,0.0,0.0,0.0,0.0,0.0,0.0,1051,14.141722,0.02371257,0.003806113,0.0,0.00021811777,0.0020129583,0.0,7.242552e-05,0.0,0.000162,0,0,0,367,0,0,0,0
721323227,0.9958059,0.014292531,-0.0037311348,-0.090290844,0.0021721707,-0.0029824614,-0.0013562291,0.0051026954,0.05304789,-0.0010639305,-2.0708055e-06,-2.090969e-06,6.6826806e-06,0.0010883335,0.0021519528,3.444822e-06,0.11935977,-9.373766e-10,0.2315808,0.0,0.0,0.0,0.0,0.0,0.0,1.27978055e-08,0.00022665222,0.0045374567,5.889356e-07,8.791006e-06,8.770525e-06,3.5911078e-05,0.00027321774,0.0002739283,0.0010641967,99.994125,99.994125,0.0005626101,8.956141e-12,8.963292e-12,1.813865e-11,1.8244754e-07,1.819609e-07,1.0000074e-08,0.0,0.0,0.0,0.0,0.0,0.0,0.0,0.0,1051,14.14172,0.023719404,0.00047162408,0.0,0.00021811777,0.0021165877,0.0,6.89398e-05,0.0,8e-06,0,0,0,367,0,0,0,0
721527407,0.9958058,0.014278126,-0.0037472486,-0.09029411,0.0015039925,-2.8121809e-05,-0.0011358042,0.005024378,0.053128522,-0.001187341,-2.0951363e-06,-2.1359458e-06,6.661069e-06,0.0010885875,0.0021518138,3.2961723e-06,0.11935977,-9.373766e-10,0.2315808,0.0,0.0,0.0,0.0,0.0,0.0,1.324589e-08,0.00024377681,0.0049893297,5.8953185e-07,8.7850985e-06,8.764551e-06,3.5944693e-05,0.00024471883,0.00024539445,0.001041758,99.9941,99.9941,0.0005348086,8.942922e-12,8.950018e-12,1.8144848e-11,1.8244417e-07,1.8195763e-07,1.0000037e-08,0.0,0.0,0.0,0.0,0.0,0.0,0.0,0.0,1051,14.141719,0.02312593,0.016133826,0.0,0.00021811777,0.0023878352,0.0,6.189437e-05,0.0,0.000187,0,0,0,367,0,0,0,0
721731232,0.99581444,0.014287281,-0.0037862211,-0.09019535,0.0026456378,0.003548123,-0.0031430544,0.00486933,0.05377041,-0.0015212531,-2.1170204e-06,-2.1642716e-06,6.6274238e-06,0.0010886623,0.0021517265,3.1564618e-06,0.11935977,-9.373766e-10,0.2315808,0.0,0.0,0.0,0.0,0.0,0.0,1.3097664e-08,0.00024824528,0.0052615562,5.8934916e-07,8.827631e-06,8.807066e-06,3.594078e-05,0.00032658575,0.00032727624,0.0010830762,99.994095,99.994095,0.00057689403,8.976327e-12,8.983417e-12,1.8143093e-11,1.8244494e-07,1.8195841e-07,1.0000036e-08,0.0,0.0,0.0,0.0,0.0,0.0,0.0,0.0,1051,14.141718,0.02401862,0.016094135,0.0,0.00021811777,0.0030504349,0.0,0.00016892943,0.0,1.3e-05,0,0,0,367,0,0,0,0
721931312,0.99581045,0.014258102,-0.0037586316,-0.090245105,0.0008953123,0.0019389446,-0.00534411,0.004947029,0.053598672,-0.0015616443,-2.0776713e-06,-2.1718765e-06,6.6221246e-06,0.0010886826,0.0021517344,2.9483506e-06,0.11935977,-9.373766e-10,0.2315808,0.0,0.0,0.0,0.0,0.0,0.0,1.2183685e-08,0.00023910971,0.0051839026,5.895369e-07,8.806982e-06,8.786508e-06,3.591644e-05,0.0002843972,0.00028506684,0.0010501661,99.99407,99.99407,0.00054419675,8.957848e-12,8.9649494e-12,1.8137259e-11,1.8244597e-07,1.8195945e-07,1e-08,0.0,0.0,0.0,0.0,0.0,0.0,0.0,0.0,1051,14.141716,0.023328025,0.015836593,0.0,0.00021811777,0.0032091378,0.0,8.815344e-05,0.0,7.4e-05,0,0,0,367,0,0,0,0
722131428,0.9958173,0.014275054,-0.0035992947,-0.090173006,0.002762216,-0.0041452614,-0.0006053917,0.0057187127,0.05329097,-0.0015399038,-2.073574e-06,-2.1697485e-06,6.6111193e-06,0.0010886723,0.0021517393,2.745671e-06,0.11935977,-9.373766e-10,0.2315808,0.0,0.0,0.0,0.0,0.0,0.0,1.410653e-08,0.00025269354,0.0052497815,5.894671e-07,8.80344e-06,8.78306e-06,3.5950507e-05,0.0002772867,0.00027794554,0.001036917,99.99406,99.99406,0.00052437995,8.9549574e-12,8.96203e-12,1.814336e-11,1.8244701e-07,1.8196049e-07,1.0000037e-08,0.0,0.0,0.0,0.0,0.0,0.0,0.0,0.0,1051,14.141715,0.022899345,0.0013915256,0.0,0.00021811777,0.0031170896,0.0,3.9885504e-06,0.0,0.000209,0,0,0,367,0,0,0,0
722332977,0.99581707,0.014353349,-0.0033426478,-0.090173975,-0.0006858962,0.0015609526,0.0009956083,0.0053159064,0.05371972,-0.0012834178,-2.105723e-06,-2.2404122e-06,6.598144e-06,0.001088606,0.002151753,2.546575e-06,0.11935977,-9.373766e-10,0.2315808,0.0,0.0,0.0,0.0,0.0,0.0,1.4193238e-08,0.00025772172,0.0056003933,5.89475e-07,8.838059e-06,8.817832e-06,3.592747e-05,0.00035250108,0.00035315304,0.0010334189,99.99404,99.99404,0.00051317306,8.986659e-12,8.9937086e-12,1.8141242e-11,1.8244805e-07,1.8196152e-07,1e-08,0.0,0.0,0.0,0.0,0.0,0.0,0.0,0.0,1051,14.141714,0.022653323,0.0038559681,0.0,0.00021811777,0.0026330797,0.0,3.5910267e-05,0.0,0.000158,0,0,0,367,0,0,0,0
722532832,0.9958189,0.014359097,-0.0032879591,-0.09015418,0.0016650236,0.00014437619,-0.00081510254,0.0054909405,0.053708583,-0.00084820075,-2.086227e-06,-2.239605e-06,6.588611e-06,0.001088629,0.002151672,2.4480369e-06,0.11935977,-9.373766e-10,0.2315808,0.0,0.0,0.0,0.0,0.0,0.0,1.1242887e-08,0.000218595,0.0049918643,5.897459e-07,8.8147235e-06,8.794627e-06,3.596094e-05,0.00031985203,0.0003205603,0.0010805291,99.99402,99.99402,0.0005585248,8.972864e-12,8.979954e-12,1.8147293e-11,1.8244653e-07,1.8196002e-07,1.0000111e-08,0.0,0.0,0.0,0.0,0.0,0.0,0.0,0.0,1051,14.141712,0.02363313,0.003921748,0.0,0.00021811777,0.0017744582,0.0,2.8070473e-05,0.0,1.3e-05,0,0,0,367,0,0,0,0
722737012,0.99581486,0.014295354,-0.003307026,-0.09020823,0.003658095,0.0011799125,0.001219763,0.0062309895,0.053656418,-0.0004525919,-2.0759467e-06,-2.2112674e-06,6.5825116e-06,0.0010886961,0.0021516553,2.3663943e-06,0.11935977,-9.373766e-10,0.2315808,0.0,0.0,0.0,0.0,0.0,0.0,9.710187e-09,0.00020242794,0.0045896308,5.899354e-07,8.781419e-06,8.7613325e-06,3.5936246e-05,0.0002577056,0.00025840185,0.0010448681,99.993996,99.993996,0.00053195294,8.947789e-12,8.9548854e-12,1.814137e-11,1.8244701e-07,1.8196049e-07,1e-08,0.0,0.0,0.0,0.0,0.0,0.0,0.0,0.0,1051,14.141711,0.023064105,0.003392361,0.0,0.00021811777,0.0009294629,0.0,4.7291804e-05,0.0,0.000161,0,0,0,367,0,0,0,0
722940970,0.99581844,0.014289343,-0.0032723744,-0.09017093,0.0021720196,0.0013027462,9.751283e-05,0.0063119982,0.053711087,-0.00029130615,-2.0736513e-06,-2.2263432e-06,6.5857394e-06,0.0010886812,0.002151653,2.3251262e-06,0.11935977,-9.373766e-10,0.2315808,0.0,0.0,0.0,0.0,0.0,0.0,1.015802e-08,0.00021336258,0.004579989,5.895986e-07,8.810178e-06,8.790088e-06,3.593223e-05,0.00031720736,0.0003179006,0.0010601099,99.99398,99.99398,0.00054876215,8.972617e-12,8.97969e-12,1.8139634e-11,1.8244805e-07,1.8196152e-07,1e-08,0.0,0.0,0.0,0.0,0.0,0.0,0.0,0.0,1051,14.14171,0.023425672,0.003984455,0.0,0.00021811777,0.00059877353,0.0,3.7966885e-05,0.0,0.000148,0,0,0,367,0,0,0,0
723141812,0.9958216,0.01426578,-0.0032091315,-0.0901425,0.0031639035,0.0011637283,-0.014314533,0.0063510705,0.05352702,-0.0003972981,-2.0289108e-06,-2.2112324e-06,6.569008e-06,0.0010888751,0.0021514823,2.3154118e-06,0.11935977,-9.373766e-10,0.2315808,0.0,0.0,0.0,0.0,0.0,0.0,2.6188167e-07,0.00055631634,0.010814235,5.899111e-07,8.786178e-06,8.766194e-06,3.5966557e-05,0.00027366803,0.00027437814,0.0010658063,99.99396,99.99396,0.00055561605,8.955449e-12,8.962565e-12,1.8147666e-11,1.8244876e-07,1.8196224e-07,1.0000112e-08,0.0,0.0,0.0,0.0,0.0,0.0,0.0,0.0,1179,14.141708,0.02357151,0.014973723,0.0,0.00021811777,0.0007055144,0.0,9.2310926e-05,0.0,0.000193,0,0,0,367,0,0,0,0
723341788,0.995537,0.002930865,0.014171995,-0.09325602,-0.048109047,-2.9607341e-05,-0.20007129,0.0018512845,0.05531601,-0.047834393,-2.1681824e-06,-2.15905e-06,6.56444e-06,0.0010884913,0.0021507298,1.1675275e-05,0.11935977,-9.373766e-10,0.2315808,0.0,0.0,0.0,0.0,0.0,0.0,7.461712e-07,0.0014054178,0.026784994,6.0868445e-07,8.850101e-06,8.819598e-06,3.5923356e-05,0.00039590834,0.00039681388,0.0010751429,99.99396,99.99396,0.0005656128,9.001236e-12,9.0084286e-12,1.8141792e-11,1.8244877e-07,1.8196229e-07,1.00000745e-08,0.0,0.0,0.0,0.0,0.0,0.0,0.0,0.0,1179,14.141708,0.023782616,2.3631761e-05,0.0,0.00021811777,0.11326056,0.0,0.01631977,0.0,0.000169,0,0,0,367,0,0,0,0
723541636,0.99519813,0.0037308917,0.008084428,-0.097474866,-0.14996272,-0.0146299545,-0.72260183,-0.017685333,0.053407837,-0.14616793,-2.1553014e-06,-2.0053294e-06,6.552363e-06,0.0010876139,0.002150307,1.3453634e-05,0.11935977,-9.373766e-10,0.2315808,0.0,0.0,0.0,0.0,0.0,0.0,6.704686e-07,0.0013864234,0.024688406,6.375126e-07,8.929152e-06,8.905127e-06,3.5931185e-05,0.0006253135,0.0006292856,0.0010517027,99.99395,99.99395,0.0005421104,9.067248e-12,9.074498e-12,1.814788e-11,1.8244829e-07,1.8196192e-07,1.0000037e-08,0.0,0.0,0.0,0.0,0.0,0.0,0.0,0.0,1179,14.141707,0.023283266,0.02159158,0.0,0.00021811777,0.08287944,0.0,0.057968352,0.0,1.7e-05,0,0,0,367,0,0,0,0
723745669,0.99490774,0.004942836,-0.00036155185,-0.100668274,-0.16667502,-0.013293384,-1.1234839,-0.039575186,0.054126833,-0.32300615,-2.4810215e-06,-1.420031e-06,6.538262e-06,0.0010882132,0.0021469833,9.583282e-06,0.11935977,-9.373766e-10,0.2315808,0.0,0.0,0.0,0.0,0.0,0.0,6.335634e-07,0.0016218353,0.031094076,6.607238e-07,8.985883e-06,8.9648365e-06,3.5941688e-05,0.00083455513,0.0008409112,0.0010335005,99.993996,99.994,0.000512487,9.113315e-12,9.12057e-12,1.8153718e-11,1.8244614e-07,1.819604e-07,1e-08,0.0,0.0,0.0,0.0,0.0,0.0,0.0,0.0,1179,14.141711,0.022638176,0.0055900346,0.0,0.00021811777,0.08671342,0.0,0.032283213,0.0,5e-05,0,0,0,367,0,0,0,0
723949773,0.99446887,0.006147067,-0.010496796,-0.10432503,-0.18462384,-0.030303802,-0.9900822,-0.07722876,0.050075043,-0.52367646,-2.5376066e-06,-1.4513319e-06,6.555613e-06,0.0010860825,0.0021493859,1.7563192e-06,0.11935977,-9.373766e-10,0.2315808,0.0,0.0,0.0,0.0,0.0,0.0,5.503081e-07,0.0015378033,0.027793417,6.891104e-07,9.099819e-06,9.075722e-06,3.5905763e-05,0.0011418619,0.0011487703,0.0010107271,99.99419,99.994194,0.00048273557,9.202564e-12,9.2097675e-12,1.8151704e-11,1.8244334e-07,1.8195878e-07,1e-08,0.0,0.0,0.0,0.0,0.0,0.0,0.0,0.0,1179,14.141725,0.021971244,0.0012963484,0.0,0.00021811777,0.12584244,0.0,0.00709203,0.0,0.000154,0,0,0,367,0,0,0,0
724150449,0.9940202,0.009895447,-0.01552315,-0.107633315,-0.17768413,-0.062003218,-0.653503,-0.11546031,0.03899069,-0.66943955,-2.487924e-06,-1.4839932e-06,6.579874e-06,0.0010827972,0.0021512178,-3.290356e-06,0.11935977,-9.373766e-10,0.2315808,0.0,0.0,0.0,0.0,0.0,0.0,4.891047e-07,0.0014921185,0.02568777,7.15808e-07,9.170067e-06,9.1440415e-06,3.5849316e-05,0.0013312154,0.0013365605,0.0010918437,99.99435,99.994354,0.0005680933,9.257441e-12,9.264647e-12,1.8145468e-11,1.8243254e-07,1.8195033e-07,1.0000112e-08,0.0,0.0,0.0,0.0,0.0,0.0,0.0,0.0,1179,14.141736,0.02383471,0.01636542,0.0,0.00021811777,0.16308568,0.0,0.0060175913,0.0,3e-05,0,0,0,367,0,0,0,0
724354627,0.9938121,0.011966011,-0.014448225,-0.10947955,-0.15073416,-0.0772467,-0.36425033,-0.14658299,0.02156935,-0.74242747,-2.4062952e-06,-1.4031344e-06,6.602536e-06,0.0010766457,0.0021524455,-1.22890215e-05,0.11935977,-9.373766e-10,0.2315808,0.0,0.0,0.0,0.0,0.0,0.0,4.4665848e-07,0.0014300279,0.025685102,7.303476e-07,9.213456e-06,9.190604e-06,3.5867943e-05,0.0014935149,0.0014969517,0.0010716186,99.994644,99.99466,0.0005643226,9.297683e-12,9.30486e-12,1.8153257e-11,1.8240715e-07,1.8193042e-07,1e-08,0.0,0.0,0.0,0.0,0.0,0.0,0.0,0.0,1179,14.141757,0.023755474,0.0054459334,0.0,0.00021811777,0.1397732,0.0,0.006488614,0.0,0.000208,0,0,0,367,0,0,0,0
724558452,0.99381,0.013792694,-0.015847793,-0.10908843,-0.13160169,-0.08446287,-0.07393899,-0.17790526,0.001849805,-0.7625721,-2.3216103e-06,-1.4514196e-06,6.6570424e-06,0.0010707164,0.0021546942,-1.8378776e-05,0.11935977,-9.373766e-10,0.2315808,0.0,0.0,0.0,0.0,0.0,0.0,5.2282564e-07,0.0017004221,0.033335436,7.2725396e-07,9.2994405e-06,9.275671e-06,3.586367e-05,0.0017789884,0.0017810984,0.0010697223,99.994995,99.99501,0.0005714536,9.365978e-12,9.373068e-12,1.8151283e-11,1.8238491e-07,1.8191488e-07,1e-08,0.0,0.0,0.0,0.0,0.0,0.0,0.0,0.0,1179,14.141782,0.023905095,0.018831458,0.0,0.00021811777,0.082230754,0.0,0.0041962075,0.0,3.3e-05,0,0,0,367,0,0,0,0
724762619,0.9940365,0.01282196,-0.013695238,-0.10742238,-0.10374901,-0.08292195,0.072087884,-0.2000159,-0.017301966,-0.7457913,-2.2660638e-06,-1.4285382e-06,6.698037e-06,0.0010675241,0.002154866,-2.167545e-05,0.11935977,-9.373766e-10,0.2315808,0.0,0.0,0.0,0.0,0.0,0.0,5.221219e-07,0.0017335821,0.035277057,7.130062e-07,9.352478e-06,9.328591e-06,3.5912683e-05,0.0020173688,0.0020183949,0.0010897394,99.99546,99.995476,0.0005972092,9.410794e-12,9.417793e-12,1.8157201e-11,1.8235292e-07,1.8189043e-07,1.0000111e-08,0.0,0.0,0.0,0.0,0.0,0.0,0.0,0.0,1179,14.141815,0.024437863,0.008321958,0.0,0.00021811777,0.053642634,0.0,0.0018860205,0.0,0.0002,0,0,0,367,0,0,0,0
724962437,0.9942623,0.014111224,-0.009564624,-0.105602816,-0.09035935,-0.07543289,0.067731366,-0.22111055,-0.035705682,-0.72675747,-2.1987355e-06,-1.5056709e-06,6.746948e-06,0.0010653059,0.0021562171,-2.2390064e-05,0.11935977,-9.373766e-10,0.2315808,0.0,0.0,0.0,0.0,0.0,0.0,5.670402e-07,0.0018414949,0.03986692,6.9722614e-07,9.367393e-06,9.346679e-06,3.5903737e-05,0.0021828196,0.0021833377,0.0010705736,99.99591,99.995926,0.0005840631,9.42826e-12,9.435133e-12,1.8150991e-11,1.8230723e-07,1.8185506e-07,1e-08,0.0,0.0,0.0,0.0,0.0,0.0,0.0,0.0,1179,14.141847,0.024167398,0.008923095,0.0,0.00021811777,0.0052337544,0.0,0.0072935824,0.0,1.8e-05,0,0,0,367,0,0,0,0
725167318,0.9943626,0.016243279,-0.013631477,-0.10389181,-0.06925428,-0.072210506,0.039069667,-0.23627266,-0.055377785,-0.7185686,-2.13008e-06,-1.4545085e-06,6.792576e-06,0.0010651856,0.0021547463,-2.1047392e-05,0.11935977,-9.373766e-10,0.2315808,0.0,0.0,0.0,0.0,0.0,0.0,4.602637e-07,0.0015689597,0.03374525,6.859037e-07,9.3929375e-06,9.368846e-06,3.5964815e-05,0.00236963,0.0023698465,0.0010678398,99.996445,99.99646,0.00058163796,9.448495e-12,9.455233e-12,1.8160905e-11,1.8226443e-07,1.8182298e-07,1e-08,0.0,0.0,0.0,0.0,0.0,0.0,0.0,0.0,1179,14.141885,0.024117172,0.0274989,0.0,0.00021811777,0.039141927,0.0,0.013940441,0.0,9.9e-05,0,0,0,367,0,0,0,0
725371471,0.9944458,0.017721903,-0.013570434,-0.10285617,-0.048852134,-0.052215688,-0.025111748,-0.24212651,-0.07152744,-0.73021007,-2.0995196e-06,-1.3383294e-06,6.849987e-06,0.0010675305,0.0021519472,-1.717709e-05,0.11935977,-9.373766e-10,0.2315808,0.0,0.0,0.0,0.0,0.0,0.0,5.4359606e-07,0.0016588403,0.034118064,6.776198e-07,9.4088855e-06,9.385256e-06,3.5963367e-05,0.0025265308,0.0025267496,0.0010689192,99.997055,99.99707,0.00058073096,9.45961e-12,9.466201e-12,1.8155017e-11,1.8222455e-07,1.817941e-07,1.0000063e-08,0.0,0.0,0.0,0.0,0.0,0.0,0.0,0.0,1179,14.141928,0.02409836,0.021433055,0.0,0.00021811777,0.055008378,0.0,0.0028295172,0.0,0.000249,0,0,0,367,0,0,0,0
725571404,0.9947276,0.011421806,-0.0004729691,-0.10191295,-0.033123188,-0.03301969,-0.03855743,-0.24753535,-0.079086676,-0.75116694,-2.116096e-06,-1.3022755e-06,6.8958607e-06,0.0010711256,0.0021504273,-1.2622422e-05,0.11935977,-9.373766e-10,0.2315808,0.0,0.0,0.0,0.0,0.0,0.0,5.596752e-07,0.0017628316,0.035415117,6.660147e-07,9.4602465e-06,9.43639e-06,3.60144e-05,0.002798914,0.0027991117,0.0010693087,99.9978,99.99782,0.00057741476,9.500076e-12,9.506553e-12,1.8160654e-11,1.8219605e-07,1.8177727e-07,1.0000037e-08,0.0,0.0,0.0,0.0,0.0,0.0,0.0,0.0,1179,14.141981,0.024029456,0.0060015535,0.0,0.00021811777,0.072828904,0.0,0.0009378104,0.0,0.000167,0,0,0,367,0,0,0,0
725775225,0.9947655,0.0070954487,-0.005524506,-0.101787314,-0.0620853,-0.038742576,-0.044268698,-0.26000914,-0.09114541,-0.76514095,-2.0356822e-06,-1.3173163e-06,6.9585085e-06,0.001071559,0.0021502406,-1.04009805e-05,0.11935977,-9.373766e-10,0.2315808,0.0,0.0,0.0,0.0,0.0,0.0,5.654181e-07,0.001770026,0.03710796,6.635362e-07,9.463773e-06,9.433779e-06,3.599082e-05,0.0028773374,0.0028781453,0.0011863643,99.998436,99.99845,0.0007216974,9.4989615e-12,9.505345e-12,1.8154134e-11,1.8216777e-07,1.8175383e-07,1.0000148e-08,0.0,0.0,0.0,0.0,0.0,0.0,0.0,0.0,1179,14.142026,0.026864426,0.022933017,0.0,0.00021811777,0.08585428,0.0,0.0071033756,0.0,6e-06,0,0,0,367,0,0,0,0
725979393,0.9947865,0.013863073,-0.009949383,-0.10054233,-0.057330944,-0.050143342,-0.028704349,-0.26824948,-0.10845566,-0.78234726,-1.9548422e-06,-1.2293528e-06,7.0065535e-06,0.0010727884,0.0021484036,-7.0629644e-06,0.11935977,-9.373766e-10,0.2315808,0.0,0.0,0.0,0.0,0.0,0.0,8.073427e-07,0.0018922585,0.04032593,6.566788e-07,9.484773e-06,9.4560555e-06,3.6045814e-05,0.00301611,0.0030168435,0.0012738092,99.99924,99.99925,0.00087493006,9.511638e-12,9.51791e-12,1.81638e-11,1.8214371e-07,1.8173687e-07,1.00001385e-08,0.0,0.0,0.0,0.0,0.0,0.0,0.0,0.0,1179,14.142082,0.029579217,0.027680995,0.0,0.00021811777,0.09117681,0.0,0.0037188774,0.0,0.000174,0,0,0,367,0,0,0,0
726180930,0.9946076,0.02573288,-0.008674181,-0.10009141,-0.059923775,-0.00854109,-0.03353326,-0.2729342,-0.11948713,-0.80169547,-1.9264082e-06,-1.1331285e-06,7.0944666e-06,0.0010751483,0.0021463165,-3.1109862e-06,0.11935977,-9.373766e-10,0.2315808,0.0,0.0,0.0,0.0,0.0,0.0,7.449838e-07,0.0016634967,0.03285845,6.56311e-07,9.5256955e-06,9.514889e-06,3.6011897e-05,0.0032525964,0.0032538874,0.0013193389,100.00018,100.0002,0.0009969886,9.544267e-12,9.5503406e-12,1.8157215e-11,1.8212442e-07,1.8172612e-07,1.0000186e-08,0.0,0.0,0.0,0.0,0.0,0.0,0.0,0.0,1179,14.142149,0.031575125,0.043469857,0.0,0.00021811777,0.10834708,0.0,0.0049365633,0.0,0.00011,0,0,0,367,0,0,0,0
726384853,0.994914,0.016115436,-0.00059334026,-0.09942853,-0.06133811,-0.0035864562,-0.025335375,-0.2784389,-0.12808801,-0.8188542,-1.8546083e-06,-1.0480167e-06,7.157899e-06,0.0010772559,0.0021444098,1.0209789e-06,0.11935977,-9.373766e-10,0.2315808,0.0,0.0,0.0,0.0,0.0,0.0,1.3624286e-06,0.0020547598,0.041060682,6.4577813e-07,9.530444e-06,9.506757e-06,3.606427e-05,0.003310519,0.0033123163,0.0013429839,100.000984,100.001,0.0010934257,9.5468616e-12,9.552758e-12,1.8167117e-11,1.8210184e-07,1.817131e-07,1.0000147e-08,0.0,0.0,0.0,0.0,0.0,0.0,0.0,0.0,1179,14.142206,0.033066988,0.026948564,0.0,0.00021811777,0.0965357,0.0,0.004651662,0.0,3.4e-05,0,0,0,367,0,0,0,0
726588882,0.9945414,0.035855137,-0.0057679364,-0.0978191,-0.099497214,0.043539446,0.005163153,-0.3065026,-0.13026033,-0.83360213,-1.7803239e-06,-1.1590483e-06,7.242755e-06,0.0010795768,0.0021445048,4.837145e-06,0.11935977,-9.373766e-10,0.2315808,0.0,0.0,0.0,0.0,0.0,0.0,9.836889e-07,0.0017647241,0.03334188,6.4403764e-07,9.515195e-06,9.52543e-06,3.6042107e-05,0.0033103004,0.0033138185,0.0013598407,100.00169,100.00172,0.0011750507,9.53922e-12,9.544751e-12,1.81647e-11,1.8208127e-07,1.8170243e-07,1.0000202e-08,0.0,0.0,0.0,0.0,0.0,0.0,0.0,0.0,1179,14.142257,0.034279015,0.03282652,0.0,0.00021811777,0.08268567,0.0,0.0075408714,0.0,6.2e-05,0,0,0,367,0,0,0,0
726788914,0.99457264,0.039329432,-0.012173214,-0.09555366,-0.080856055,0.14238627,0.0032473283,-0.3118854,-0.1127263,-0.84465927,-1.7868498e-06,-1.0187939e-06,7.328933e-06,0.0010817371,0.0021425984,8.184104e-06,0.11935977,-9.373766e-10,0.2315808,0.0,0.0,0.0,0.0,0.0,0.0,1.3940745e-06,0.0017457977,0.036290534,6.3076845e-07,9.505594e-06,9.516542e-06,3.6021916e-05,0.0032790303,0.0032818748,0.001357208,100.00239,100.00242,0.0012127983,9.5280095e-12,9.532932e-12,1.8158194e-11,1.8206313e-07,1.8169492e-07,1.0000168e-08,0.0,0.0,0.0,0.0,0.0,0.0,0.0,0.0,1179,14.142305,0.034825254,0.02521985,0.0,0.00021811777,0.059384435,0.0,0.015286801,0.0,9.5e-05,0,0,0,367,0,0,0,0
726993772,0.9955561,0.0035095287,-0.014871542,-0.09292249,-0.04348195,0.15891606,0.02325484,-0.31444857,-0.074265935,-0.85008675,-1.866454e-06,-9.291323e-07,7.4030945e-06,0.0010839187,0.002141361,1.0889661e-05,0.11935977,-9.373766e-10,0.2315808,0.0,0.0,0.0,0.0,0.0,0.0,1.0707686e-06,0.0014340758,0.028005656,5.9695236e-07,9.544962e-06,9.494727e-06,3.6052952e-05,0.003370529,0.003371479,0.0013567063,100.003265,100.0033,0.0012356241,9.540219e-12,9.545207e-12,1.8151737e-11,1.8204881e-07,1.8169145e-07,1.0000148e-08,0.0,0.0,0.0,0.0,0.0,0.0,0.0,0.0,1179,14.142367,0.035151444,0.015487963,0.0,0.00021811777,0.05363363,0.0,0.009484239,0.0,0.000153,0,0,0,367,0,0,0,0
727197776,0.9956296,-0.002907799,-0.0249246,-0.08995566,0.010807303,0.10299584,0.021670833,-0.30813518,-0.0446878,-0.8529432,-1.9058607e-06,-8.344755e-07,7.4421596e-06,0.0010853353,0.0021405402,1.2928579e-05,0.11935977,-9.373766e-10,0.2315808,0.0,0.0,0.0,0.0,0.0,0.0,9.3388155e-07,0.0015138098,0.03018037,5.814096e-07,9.6029125e-06,9.535838e-06,3.6112844e-05,0.0035771914,0.0035785765,0.0013671411,100.0044,100.00444,0.001262256,9.573542e-12,9.578799e-12,1.8163323e-11,1.8203669e-07,1.816905e-07,1.0000223e-08,0.0,0.0,0.0,0.0,0.0,0.0,0.0,0.0,1179,14.142448,0.035528243,0.020386249,0.0,0.00021811777,0.047324073,0.0,0.0025505554,0.0,0.000157,0,0,0,367,0,0,0,0
727397792,0.9954568,0.008753008,-0.035981152,-0.0877187,0.08920645,0.04575333,0.051946096,-0.29011044,-0.030523308,-0.85284096,-1.914617e-06,-7.542461e-07,7.4788463e-06,0.0010864204,0.0021401017,1.4671722e-05,0.11935977,-9.373766e-10,0.2315808,0.0,0.0,0.0,0.0,0.0,0.0,1.4188752e-06,0.0019258579,0.038199246,5.744805e-07,9.669249e-06,9.579448e-06,3.6080466e-05,0.003796502,0.0037981314,0.0013654878,100.00562,100.00566,0.0012605338,9.6081225e-12,9.613633e-12,1.8156749e-11,1.820254e-07,1.8169052e-07,1.0000186e-08,0.0,0.0,0.0,0.0,0.0,0.0,0.0,0.0,1179,14.142535,0.035504,0.00836827,0.0,0.00021811777,0.02471555,0.0,0.013275653,0.0,0.000173,0,0,0,367,0,0,0,0
727597813,0.9950223,0.02994891,-0.041026294,-0.085735194,0.22326124,0.07228498,0.060079847,-0.24052939,-0.018759726,-0.84309584,-1.9497893e-06,-5.6911364e-07,7.518779e-06,0.0010861746,0.002140294,1.5219149e-05,0.11935977,-9.373766e-10,0.2315808,0.0,0.0,0.0,0.0,0.0,0.0,1.1955793e-06,0.0020810112,0.04311857,5.7426433e-07,9.66316e-06,9.591107e-06,3.6093534e-05,0.0037888677,0.0037904873,0.0014160709,100.00651,100.00654,0.0013634835,9.600115e-12,9.605915e-12,1.8162152e-11,1.8201469e-07,1.8169058e-07,1.0000191e-08,0.0,0.0,0.0,0.0,0.0,0.0,0.0,0.0,1179,14.142597,0.036925375,0.0398449,0.0,0.00021811777,0.016665325,0.0,0.00831841,0.0,0.000193,0,0,0,367,0,0,0,0
727801804,0.99545074,0.025908828,-0.033802643,-0.08523004,0.33329633,0.11251918,0.07027058,-0.17489491,0.0011187854,-0.8343447,-1.97519e-06,-4.8689003e-07,7.5903667e-06,0.0010865023,0.0021403353,1.6451904e-05,0.11935977,-9.373766e-10,0.2315808,0.0,0.0,0.0,0.0,0.0,0.0,1.1668446e-06,0.0017325698,0.03548071,5.626947e-07,9.704889e-06,9.644946e-06,3.6090525e-05,0.004055194,0.0040614344,0.0013937424,100.00791,100.007935,0.0013213485,9.6383205e-12,9.64408e-12,1.8155474e-11,1.8199881e-07,1.8169011e-07,1.0000186e-08,0.0,0.0,0.0,0.0,0.0,0.0,0.0,0.0,1179,14.142695,0.03635036,0.03088345,0.0,0.00021811777,0.036161207,0.0,0.004547425,0.0,0.000183,0,0,0,367,0,0,0,0
728006646,0.9959724,-0.0032151262,-0.024991993,-0.08604721,0.4104186,0.101138026,0.039543655,-0.08519342,0.031165492,-0.8294571,-2.046555e-06,-3.9835646e-07,7.63926e-06,0.001087096,0.0021405166,1.8072098e-05,0.11935977,-9.373766e-10,0.2315808,0.0,0.0,0.0,0.0,0.0,0.0,8.4207323e-07,0.0014494687,0.028552799,5.543277e-07,9.719331e-06,9.654414e-06,3.610998e-05,0.004182601,0.0041943183,0.0012448162,100.009155,100.009186,0.0010103073,9.6512945e-12,9.657244e-12,1.8152787e-11,1.8197424e-07,1.8168812e-07,1.0000037e-08,0.0,0.0,0.0,0.0,0.0,0.0,0.0,0.0,1179,14.142784,0.03178533,0.012964349,0.0,0.00021811777,0.017003462,0.0,0.0037125403,0.0,0.000227,0,0,0,367,0,0,0,0
728206561,0.99596065,-0.004356068,-0.02020672,-0.08738008,0.4485645,0.027600378,0.038373873,0.011227606,0.03877758,-0.8227673,-2.0141492e-06,-3.0863822e-07,7.649667e-06,0.0010874262,0.0021411558,1.8347222e-05,0.11935977,-9.373766e-10,0.2315808,0.0,0.0,0.0,0.0,0.0,0.0,7.46567e-07,0.0016642606,0.03423843,5.604489e-07,9.719312e-06,9.663787e-06,3.61384e-05,0.0042448696,0.0042611617,0.0012218704,100.01033,100.01036,0.0008753867,9.65549e-12,9.661577e-12,1.8159953e-11,1.8195516e-07,1.8168379e-07,1.0000133e-08,0.0,0.0,0.0,0.0,0.0,0.0,0.0,0.0,1179,14.142867,0.029586935,0.0012765885,0.0,0.00021811777,0.028155942,0.0,0.02106214,0.0,0.000104,0,0,0,367,0,0,0,0
728410442,0.9957949,0.0015987656,-0.022178885,-0.08887145,0.46812934,-0.032393787,0.02765761,0.10401973,0.038045753,-0.81187356,-2.014083e-06,-3.084606e-07,7.661004e-06,0.0010874158,0.0021411523,1.8314353e-05,0.11935977,-9.373766e-10,0.2315808,0.0,0.0,0.0,0.0,0.0,0.0,7.834822e-07,0.0019997312,0.040661514,5.7054774e-07,9.8644205e-06,9.806146e-06,3.6100122e-05,0.0049730414,0.0049901186,0.0012552597,100.01299,100.013016,0.00088749256,9.757874e-12,9.763873e-12,1.8153565e-11,1.8194282e-07,1.8168473e-07,1e-08,0.0,0.0,0.0,0.0,0.0,0.0,0.0,0.0,1179,14.143055,0.029790813,0.01197846,0.0,0.00021811777,0.08840149,0.0,0.08054109,0.0,2.3e-05,0,0,0,367,0,0,0,0
728614624,0.9957135,0.0059421584,-0.020754648,-0.08993732,0.50661975,-0.059822198,0.04345337,0.20663348,0.027981194,-0.8055294,-2.0138266e-06,-3.0971026e-07,7.6756105e-06,0.001088544,0.0021410356,1.961527e-05,0.11935977,-9.373766e-10,0.2315808,0.0,0.0,0.0,0.0,0.0,0.0,5.4426164e-07,0.0016690546,0.03375649,5.775656e-07,1.0014449e-05,9.960241e-06,3.6145168e-05,0.0058075637,0.0058273966,0.0012420687,100.0163,100.01632,0.0008245243,9.8643515e-12,9.87025e-12,1.8163278e-11,1.8192439e-07,1.8168566e-07,1.0000074e-08,0.0,0.0,0.0,0.0,0.0,0.0,0.0,0.0,1179,14.143289,0.028714532,0.013633933,0.0,0.00021811777,0.032557964,0.0,0.018052692,0.0,0.000204,0,0,0,367,0,0,0,0
728814648,0.9956673,0.0070004542,-0.015711578,-0.09138244,0.51717925,-0.08321415,0.0049630776,0.33421406,0.010163161,-0.7950767,-2.0232262e-06,-1.0990631e-07,7.673947e-06,0.0010874703,0.0021428673,1.8765506e-05,0.11935977,-9.373766e-10,0.2315808,0.0,0.0,0.0,0.0,0.0,0.0,7.0432117e-07,0.0019968185,0.039723165,5.847913e-07,9.931253e-06,9.885938e-06,3.6111e-05,0.005555774,0.005575171,0.0013084996,100.01725,100.01727,0.0009192394,9.805512e-12,9.811323e-12,1.8155942e-11,1.8189682e-07,1.81674e-07,1.0000034e-08,0.0,0.0,0.0,0.0,0.0,0.0,0.0,0.0,1179,14.143356,0.03031896,0.009024398,0.0,0.00021811777,0.030189669,0.0,0.006152153,0.0,0.000229,0,0,0,367,0,0,0,0
729018465,0.9956125,0.010149179,-0.009572436,-0.092527516,0.5375309,-0.11538669,0.044743367,0.454577,-0.014553617,-0.78293025,-2.0062453e-06,-2.6086e-09,7.670298e-06,0.001086462,0.00214392,1.7732094e-05,0.11935977,-9.373766e-10,0.2315808,0.0,0.0,0.0,0.0,0.0,0.0,5.9653763e-07,0.0018916972,0.038953263,5.9154644e-07,9.898224e-06,9.861303e-06,3.6135556e-05,0.0054824674,0.005503913,0.001346934,100.01861,100.01863,0.0010019881,9.784004e-12,9.789577e-12,1.8160693e-11,1.8186695e-07,1.8166523e-07,1.00000745e-08,0.0,0.0,0.0,0.0,0.0,0.0,0.0,0.0,1179,14.143452,0.031654194,0.006363507,0.0,0.00021811777,0.026686504,0.0,0.0021018789,0.0,4.6e-05,0,0,0,367,0,0,0,0
729219426,0.9955529,0.011211529,-0.009574712,-0.0930434,0.5147635,-0.12051163,0.03160889,0.5791423,-0.03892407,-0.7707729,-2.025769e-06,1.3551913e-07,7.681538e-06,0.0010851702,0.0021451977,1.6774096e-05,0.11935977,-9.373766e-10,0.2315808,0.0,0.0,0.0,0.0,0.0,0.0,5.976032e-07,0.001870502,0.037981387,5.947366e-07,9.72771e-06,9.69049e-06,3.6101337e-05,0.004642413,0.004663696,0.0013007306,100.01783,100.01788,0.0009760563,9.6646155e-12,9.6696305e-12,1.8152624e-11,1.8181639e-07,1.8164965e-07,1e-08,0.0,0.0,0.0,0.0,0.0,0.0,0.0,0.0,1179,14.143398,0.0312419,0.0005179498,0.0,0.00021811777,0.021390172,0.0,0.0046129026,0.0,0.000207,0,0,0,367,0,0,0,0
729423416,0.99558944,0.013317893,-0.012749897,-0.091988616,0.5104017,-0.10490179,0.03575697,0.69127077,-0.05867788,-0.7658351,-2.0565828e-06,1.6781274e-07,7.684184e-06,0.0010860319,0.0021453858,1.7662402e-05,0.11935977,-9.373766e-10,0.2315808,0.0,0.0,0.0,0.0,0.0,0.0,5.582657e-07,0.0017377167,0.035231527,5.890803e-07,9.615898e-06,9.576185e-06,3.6095073e-05,0.0040157773,0.0040393863,0.0012127232,100.01741,100.01747,0.000823,9.589576e-12,9.594259e-12,1.8150774e-11,1.8175965e-07,1.8163783e-07,1.0000111e-08,0.0,0.0,0.0,0.0,0.0,0.0,0.0,0.0,1179,14.143369,0.028687976,0.0073545678,0.0,0.00021811777,0.062181946,0.0,0.023699787,0.0,0.000197,0,0,0,367,0,0,0,0
729627291,0.99551034,0.023492878,-0.014678002,-0.09050864,0.5094976,-0.071080685,0.03107649,0.79282993,-0.078230925,-0.7585576,-2.041136e-06,1.6858263e-07,7.687863e-06,0.0010853533,0.0021454776,1.706284e-05,0.11935977,-9.373766e-10,0.2315808,0.0,0.0,0.0,0.0,0.0,0.0,6.571398e-07,0.0019507346,0.04217452,5.8427133e-07,9.634239e-06,9.604935e-06,3.6122416e-05,0.0040529976,0.0040782117,0.0011588011,100.01846,100.01854,0.00072228524,9.607447e-12,9.61191e-12,1.8155805e-11,1.8170955e-07,1.8163294e-07,1e-08,0.0,0.0,0.0,0.0,0.0,0.0,0.0,0.0,1179,14.143444,0.026875366,0.006572949,0.0,0.00021811777,0.00023263834,0.0,0.013242137,0.0,7.2e-05,0,0,0,367,0,0,0,0
729827396,0.99578846,0.025519198,-0.0048536835,-0.08792348,0.49932203,-0.039597478,0.027539011,0.90385455,-0.09290379,-0.75163335,-2.029396e-06,2.3832611e-07,7.70488e-06,0.0010847291,0.0021461127,1.655423e-05,0.11935977,-9.373766e-10,0.2315808,0.0,0.0,0.0,0.0,0.0,0.0,5.4908435e-07,0.001736275,0.03713964,5.6648105e-07,9.574681e-06,9.554122e-06,3.6113746e-05,0.00371402,0.0037409258,0.0012003996,100.01854,100.01866,0.0007492364,9.5737775e-12,9.57771e-12,1.8148464e-11,1.8166779e-07,1.816248e-07,1.00001065e-08,0.0,0.0,0.0,0.0,0.0,0.0,0.0,0.0,1179,14.143451,0.027372183,0.006764158,0.0,0.00021811777,0.0448965,0.0,0.010536259,0.0,0.00016,0,0,0,367,0,0,0,0
730027393,0.99589795,0.024412207,-0.0069592427,-0.08685085,0.46786717,0.020263609,0.0072226943,1.0064163,-0.09112093,-0.74988014,-2.0600942e-06,2.803921e-07,7.712557e-06,0.0010850932,0.0021464245,1.6977678e-05,0.11935977,-9.373766e-10,0.2315808,0.0,0.0,0.0,0.0,0.0,0.0,6.026259e-07,0.0015369534,0.032785855,5.5977137e-07,9.602036e-06,9.574538e-06,3.61505e-05,0.0037657903,0.0037900512,0.001166597,100.01949,100.019646,0.0006936403,9.595537e-12,9.599139e-12,1.8153583e-11,1.816128e-07,1.8161975e-07,1.0000074e-08,0.0,0.0,0.0,0.0,0.0,0.0,0.0,0.0,1179,14.143519,0.026337052,0.00540209,0.0,0.00021811777,0.0019996492,0.0,0.0135176815,0.0,0.000174,0,0,0,367,0,0,0,0
