timestamp,gyro_rad[0],gyro_rad[1],gyro_rad[2],gyro_integral_dt,accelerometer_timestamp_relative,accelerometer_m_s2[0],accelerometer_m_s2[1],accelerometer_m_s2[2],accelerometer_integral_dt
711784461,-0.00036991393,0.0059194905,0.00063602795,4000,0,0.09479163,-0.005091464,-9.803298,4000
711788460,-0.001240973,0.0028451418,-0.0004490073,3999,0,0.09854666,0.006910508,-9.807496,3999
711792460,-0.0016363981,-0.00025357812,0.001223022,4000,0,0.085035495,-0.01647408,-9.812743,4000
711796465,-0.00089703576,-0.0048396336,0.00094936765,4005,0,0.10671103,-0.019402254,-9.806545,4005
711800460,0.0016697565,0.0042070514,0.0015389583,3995,0,0.11027064,-0.010942408,-9.7950535,3995
711804461,-0.0006729879,-0.0032419001,0.0014925954,4001,0,0.08927547,-0.0095504755,-9.790406,4001
711808461,-0.00045598525,0.00036146244,0.0019566987,4000,0,0.083881624,-0.026655626,-9.7967205,4000
711812461,0.00104174,0.004620851,0.0022999751,4000,0,0.09610187,-0.033991784,-9.782747,4000
711816460,-0.0012801936,-0.004969386,0.0033992224,3999,0,0.099217065,-0.0233287,-9.796453,3999
711820461,-0.0030197196,-0.0033459459,0.001319337,4001,0,0.09009915,-0.00084725727,-9.797469,4001
711824462,-0.0007881089,-0.0029311383,0.0010769301,4001,0,0.08475792,0.009043125,-9.8294935,4001
711828461,0.00017103527,-0.0002617131,0.0011930043,3999,0,0.08485841,-0.017271679,-9.823715,3999
711832460,-0.0008100858,-0.0064186165,-0.00013793082,3999,0,0.09493276,-0.0348092,-9.795094,3999
711836462,-0.0010006076,-0.0028131509,0.0010772465,4002,0,0.087874226,-0.025984272,-9.815295,4002
711840461,0.0001800829,-0.0047363164,0.0016739836,3999,0,0.07886113,-0.031600468,-9.78336,3999
711844461,-0.0014270282,-0.009519535,0.0011134942,4000,0,0.08487715,-0.021427762,-9.794766,4000
711848461,-0.002136708,-0.004681428,-0.0029692466,4000,0,0.08662367,-0.036609422,-9.804476,4000
711852460,-0.000809059,-0.0010927881,0.0001273292,3999,0,0.08321207,-0.041796867,-9.8074465,3999
711856460,-0.00035262146,-0.0015454025,0.0017193058,4000,0,0.08281311,-0.011777358,-9.803168,4000
711860460,-5.0647956e-05,-0.004402391,0.000617701,4000,0,0.09068759,-0.016704047,-9.79146,4000
711864461,-0.00035188414,-0.003991356,0.0016913827,4001,0,0.08320519,-0.013620015,-9.808425,4001
711868461,-0.0014180872,-0.003989715,0.0016032889,4000,0,0.09979264,-0.022113971,-9.818325,4000
711872460,-0.000799856,-0.0049340827,0.0004109765,3999,0,0.09763818,-0.032951124,-9.832191,3999
711876463,0.00015329252,0.0018805445,0.00015416741,4003,0,0.091047145,-0.02776934,-9.825834,4003
711880461,0.00019913878,4.8295216e-05,0.0025772725,3998,0,0.09061102,-0.030547814,-9.796364,3998
711884460,0.0011459088,0.00047224454,0.0021425192,3999,0,0.10362676,-0.03486852,-9.790962,3999
711888460,-0.00015914698,-0.0015311349,0.0005454654,4000,0,0.100646816,-0.015835866,-9.824444,4000
711892462,-0.001391777,0.002697782,0.003063858,4002,0,0.07790916,-0.0047008013,-9.837685,4002
711896461,-0.0023592154,0.0055810832,0.0024759877,3999,0,0.08577414,-0.030959627,-9.798673,3999
711900461,-0.0016650142,0.0014568341,-0.00013559741,4000,0,0.10582783,-0.028983174,-9.800476,4000
711904460,-0.0016853213,-0.0014045351,-0.0012346366,3999,0,0.09083368,-0.010711072,-9.810453,3999
711908464,0.0013988961,0.0018774803,-0.0014679859,4004,0,0.077299066,-0.0030010575,-9.817243,4004
711912460,0.0010207877,0.0042086137,0.001124544,3996,0,0.08146455,-0.009914947,-9.798372,3996
711916460,-0.00077114964,-0.0030274573,0.0018203406,4000,0,0.10779383,-0.036689464,-9.799141,4000
711920460,-0.0006836128,0.0011229533,0.00101151,4000,0,0.11440499,-0.03852807,-9.8045025,4000
711924461,-0.00058010087,0.002731715,0.00070908054,4001,0,0.09240166,-0.025655132,-9.80348,4001
711928460,-0.0037551995,-0.0056952527,0.0018373897,3999,0,0.081975386,-0.017590264,-9.796563,3999
711932461,-0.0006836178,-0.0034518272,0.0009590443,4001,0,0.0859815,-0.035074137,-9.814893,4001
711936461,0.0018427048,0.0017938697,-0.00072786387,4000,0,0.07731562,-0.038216937,-9.789147,4000
711940470,0.00027382848,0.005073192,0.00093674177,4009,0,0.085037746,-0.021582732,-9.786639,4009
711944460,-0.0019367548,-0.0035813993,0.0023639288,3990,0,0.08285922,-0.0055568847,-9.800763,3990
711948460,-0.00071526575,-0.0027905793,-0.0008423405,4000,0,0.0932164,-0.018538916,-9.838603,4000
711952461,-0.0015654754,0.004125566,-0.00074806536,4001,0,0.1090176,-0.041800734,-9.811575,4001
711956461,0.0014821583,0.0018440521,0.0031106381,4000,0,0.09019023,-0.03070843,-9.819674,4000
711960460,0.0026570656,0.003864094,0.0033269261,3999,0,0.07135909,-0.021836497,-9.80118,3999
711964461,0.0020385294,0.0024694905,0.004171259,4001,0,0.08739893,-0.021270817,-9.814716,4001
711968461,0.0005014446,0.002394453,0.0017515498,4000,0,0.102204524,-0.014012172,-9.817786,4000
711972460,-0.0005001778,0.0002934234,-0.0007046672,3999,0,0.09378046,-0.007922773,-9.806163,3999
711976461,-0.0025321809,0.0013656551,-0.0012949927,4001,0,0.09754768,-0.0064523197,-9.810011,4001
711980462,-0.0006774314,0.001014905,0.0013291931,4001,0,0.09457097,-0.013546103,-9.815754,4001
711984461,-0.0001355578,0.001964855,0.0015379309,3999,0,0.09402615,-0.023290394,-9.822433,3999
711988460,-0.00086859846,-0.0014467916,0.0025817568,3999,0,0.108418845,-0.0042838915,-9.791156,3999
711992460,0.0004983882,-0.0011156708,0.0015991582,4000,0,0.09367775,0.0008093109,-9.812281,4000
711996463,-0.0018373328,-0.0091021955,0.0019765643,4003,0,0.083388574,0.009183057,-9.798182,4003
712000461,-0.0028513505,-0.0056583383,-0.0012651748,3998,0,0.0800851,-0.009639054,-9.822128,3998
712004463,-0.00068134535,-0.0023877395,0.0011824835,4002,0,0.08783799,-0.014483465,-9.817064,4002
712008461,0.00085473276,0.005777708,0.0037006245,3998,0,0.08559014,-0.020795349,-9.809021,3998
712012460,-0.00066707516,0.0052684583,0.0019120858,3999,0,0.0724606,-0.009970036,-9.79251,3999
712016462,-0.0034471722,-0.0044103493,0.001208518,4002,0,0.076237045,-0.015677458,-9.795967,4002
712020461,-5.3871252e-05,0.0026074017,0.00070484175,3999,0,0.09096314,-0.020231228,-9.777751,3999
712024460,0.0013293946,0.001344898,0.00044644673,3999,0,0.0930847,-0.008095349,-9.790942,3999
712028462,-0.00047056234,-0.0015351844,0.0009771343,4002,0,0.09119515,-0.024373438,-9.789667,4002
712032463,-0.0004680068,-0.0011086623,0.0010885469,4001,0,0.078699306,-0.039636146,-9.792472,4001
712036461,0.0005845238,0.0024066532,0.00047146066,3998,0,0.078697264,-0.042150486,-9.819623,3998
712040462,-0.00027767313,-0.002481287,-0.00010213497,4001,0,0.100491434,-0.034691907,-9.80564,4001
712044460,-0.002194347,-0.0052467072,-0.00020685658,3998,0,0.096199766,-0.02466477,-9.804973,3998
712048460,0.0013190652,0.002509601,0.00024307355,4000,0,0.09197734,-0.024759855,-9.798692,4000
712052460,-3.713652e-05,0.0015456585,0.0014309376,4000,0,0.098084755,-0.03372462,-9.806539,4000
712056461,0.0011149715,0.0035794845,0.00036998861,4001,0,0.09516422,-0.023654563,-9.809227,4001
712060460,-0.0014664417,0.0021093753,-0.0011988055,3999,0,0.08486214,-0.013939488,-9.823194,3999
712064461,7.8738296e-05,0.0034562661,0.0019835704,4001,0,0.057639204,-0.009196645,-9.818397,4001
712068461,-5.2784002e-05,-0.0018502591,0.0005409641,4000,0,0.08305007,-0.009546493,-9.7903,4000
712072460,2.7231148e-05,-0.002896681,-0.0009636269,3999,0,0.10973361,-0.0128028635,-9.797937,3999
712076462,0.0019620568,0.0016590174,0.00012258321,4002,0,0.10605876,-0.013955451,-9.815039,4002
712080460,-0.00066474953,-0.00027108128,0.0020595908,3998,0,0.08895967,-0.03195541,-9.835354,3998
712084461,0.00036837254,0.0037941653,0.0002788168,4001,0,0.101626776,-0.028752068,-9.823183,4001
712088461,5.545437e-05,0.0020841344,0.0006900692,4000,0,0.09316296,-0.022158394,-9.813923,4000
712092461,-0.0016664454,-0.004179716,-0.00041638716,4000,0,0.08241856,-0.022179415,-9.770964,4000
712096460,-0.0015702043,-0.0023632366,-0.0010360443,3999,0,0.074485295,-0.0043225866,-9.786772,3999
712100462,-0.0021853554,-0.004291969,0.0003364898,4002,0,0.09317919,-0.009593197,-9.786212,4002
712104460,-0.0028930865,0.002813899,0.0022425419,3998,0,0.106169045,-0.019711986,-9.785091,3998
712108461,-0.0015272711,-0.0022862281,0.0014123225,4001,0,0.06995942,-0.022816952,-9.798795,4001
712112460,-0.0006975301,-0.005571057,0.0001889744,3999,0,0.08470232,-0.017493341,-9.804229,3999
712116460,-0.0026964191,-0.0033506579,0.0015268206,4000,0,0.087349795,-0.014316266,-9.790439,4000
712120463,-0.0010623839,-0.0010338457,0.0036538034,4003,0,0.09396307,-0.019992799,-9.79584,4003
712124460,-0.0013834505,-0.000715699,0.0035563891,3997,0,0.09244899,-0.0014695701,-9.827919,3997
712128462,0.0008383468,0.0040830793,0.0028289624,4002,0,0.07774531,-0.0015569932,-9.819111,4002
712132461,0.0006026079,0.004309547,0.0015591047,3999,0,0.07484385,-0.0070741395,-9.792069,3999
712136460,-0.00017866766,-0.0005596083,-0.0006138519,3999,0,0.08672864,-0.02140026,-9.7985735,3999
712140461,-0.0007880359,0.0017645347,0.0010200499,4001,0,0.09524671,-0.021483915,-9.832026,4001
712144461,0.0010303801,0.0035667068,0.0015418624,4000,0,0.09136623,-0.0083973985,-9.807542,4000
712148460,-0.0006498036,0.0003578047,0.0029182038,3999,0,0.0938721,-0.014199167,-9.801008,3999
712152463,-0.00032912314,0.00025252783,0.0030167163,4003,0,0.08523396,-0.024213195,-9.801931,4003
712156461,0.00030670463,0.0019560792,0.0028141686,3998,0,0.07729148,-0.020053018,-9.7903185,3998
712160460,-0.0012814457,-0.0048465277,0.0031902578,3999,0,0.08892083,-0.036895767,-9.782231,3999
712164506,-1.9172627e-05,-0.0015245999,0.0012874063,4046,0,0.08411947,-0.016878413,-9.78739,4046
712168461,0.0027259951,0.003612744,0.0009783217,3955,0,0.09274698,-0.0042122253,-9.789092,3955
712172460,0.0022019092,0.004521866,0.0016392358,3999,0,0.09700433,-0.017713118,-9.786359,3999
712176461,-0.00024427008,0.0020742335,0.0017600314,4001,0,0.09760172,-0.010304743,-9.806737,4001
712180466,0.00049589196,-0.002607335,0.0014787429,4005,0,0.1001957,-0.015872622,-9.822506,4005
712184461,0.00065904704,-0.0013000997,-0.0012735527,3995,0,0.10395721,-0.022879865,-9.798402,3995
712188460,-0.001866877,-0.0033737293,-0.00051877333,3999,0,0.108326994,-0.024204101,-9.77661,3999
712192461,-0.0012049477,-0.003565898,0.0016049187,4001,0,0.09074979,-0.026772412,-9.787788,4001
712196460,-0.00016858881,-0.0018431332,1.00158e-05,3999,0,0.09383513,-0.015124524,-9.802924,3999
712200461,-0.000731738,-0.0054448484,-0.0016177288,4001,0,0.10007112,-0.015114375,-9.801152,4001
712204461,-0.0013583914,-0.0069364156,-0.0010923551,4000,0,0.0870656,-0.02224828,-9.8067,4000
712208460,-0.0006713728,-0.0033509305,0.0015972616,3999,0,0.09054792,-0.024253689,-9.79964,3999
712212461,-0.0021485107,-0.0031526266,0.0024773919,4001,0,0.0878497,-0.033609845,-9.817285,4001
712216460,0.00059174973,0.0049605784,0.0008218274,3999,0,0.093207225,-0.029359832,-9.808849,3999
712220462,-3.805015e-05,0.0041012005,0.0013537683,4002,0,0.10135852,-0.0140842,-9.811123,4002
712224461,0.00036095292,-0.004291777,-0.00013416278,3999,0,0.096726656,-0.010830514,-9.801974,3999
712228460,-0.0024021599,-0.0068463157,9.699555e-05,3999,0,0.10309349,-0.002334712,-9.7939,3999
712232461,-0.0037081332,-0.006187558,-0.0015752658,4001,0,0.08576611,-0.010876879,-9.798925,4001
712236461,-0.001405072,-0.0032536143,0.0023577982,4000,0,0.08075939,-0.011192397,-9.811215,4000
712240460,0.0018503326,-0.0010937059,-0.00022942164,3999,0,0.074075684,-0.014557614,-9.809715,3999
712244461,4.048262e-05,-0.003126894,-0.0003243012,4001,0,0.07093507,-0.023296349,-9.799237,4001
712248461,-3.2336844e-05,-0.0009051886,0.0017212963,4000,0,0.07262417,-0.028886408,-9.810791,4000
712252462,-0.0003581159,0.0032445402,0.0013491478,4001,0,0.08638032,-0.0272216,-9.791508,4001
712256460,-0.00040298156,-0.0020410952,-0.0012654087,3998,0,0.08526184,-0.024715716,-9.800503,3998
712260461,0.0010701489,0.0027584636,-0.0021930884,4001,0,0.099106796,-0.028983638,-9.802702,4001
712264461,0.0014552813,0.0038847458,0.0015388172,4000,0,0.094817884,-0.019453125,-9.801553,4000
712268460,-0.0015202437,-0.002396638,0.0018371701,3999,0,0.08843184,-0.014083161,-9.810894,3999
712272460,0.00010315465,0.0017370317,0.003242682,4000,0,0.09486763,-0.021889284,-9.7964,4000
712276460,-0.00058754336,0.00038612838,0.00036326484,4000,0,0.10456792,-0.019417478,-9.764648,4000
712280460,0.00058865134,0.004535128,0.00070966413,4000,0,0.10327487,-0.012961392,-9.78404,4000
712284460,0.0010171796,-0.0012146924,0.00095281773,4000,0,0.09236163,-0.0110687995,-9.776309,4000
712288461,-0.00077751576,-0.00239546,0.0016998036,4001,0,0.09367421,-0.004968546,-9.804781,4001
712292461,-0.0023609316,-0.0034671403,0.0024776226,4000,0,0.09246768,-0.017237,-9.826226,4000
712296461,0.00065398804,0.0018309281,0.0044026715,4000,0,0.09375294,-0.028616019,-9.8354,4000
712300467,0.001367711,0.003550793,0.0028115474,4006,0,0.08785702,-0.026076762,-9.843846,4006
712304460,-0.0012465192,-0.0017231618,-0.0008222119,3993,0,0.08349625,-0.01637013,-9.8193865,3993
712309260,0.0010381142,0.0027799422,-0.0010044058,4800,0,0.0813092,-0.022781543,-9.802306,4800
712313260,0.0011330404,0.0008022638,0.0012947808,4000,0,0.08282208,-0.025173306,-9.803305,4000
712317260,0.0006228492,0.0019564768,0.0027015475,4000,0,0.08709013,-0.0370751,-9.805431,4000
712321260,0.002206623,5.033459e-05,0.001906388,4000,0,0.100194655,-0.03592343,-9.822771,4000
712325260,0.00020004615,0.0021667369,0.0028178112,4000,0,0.09717827,-0.026595192,-9.803591,4000
712329260,0.0007771353,-0.00065884506,-0.0008418479,4000,0,0.09249884,-0.014397422,-9.798553,4000
712333260,0.00024575976,0.0014651774,-0.0007034369,4000,0,0.109732516,-0.008975594,-9.797896,4000
712337260,-0.0013620293,-0.005871785,-0.001293326,4000,0,0.09869102,-0.017557334,-9.799235,4000
712341260,-0.0006045326,-0.0035423734,-0.00053473713,4000,0,0.08947332,0.00019823672,-9.80599,4000
712345260,-0.0011761644,-0.0002837518,0.003238701,4000,0,0.101642616,0.0019751056,-9.794769,4000
712349260,-0.0019330999,-0.004426514,0.0025655935,4000,0,0.095624544,-0.007234321,-9.782897,4000
712353260,-0.0025865033,-0.0023957987,0.001749034,4000,0,0.10654886,-0.021026926,-9.788001,4000
712357268,-4.0656098e-05,0.002265233,0.0016496765,4008,0,0.09880552,-0.024747383,-9.790779,4008
712361260,-0.0014406546,0.0028333731,0.00029863018,3992,0,0.09008066,-0.018025827,-9.798606,3992
712365261,-0.0015198842,-0.0044154827,0.0018129736,4001,0,0.09449603,-0.011747404,-9.765337,4001
712369260,0.0018704216,0.005173035,0.0009074046,3999,0,0.101713255,-0.016231114,-9.791185,3999
712373260,0.00091236853,0.0005920763,0.0009775144,4000,0,0.09520079,-0.014917021,-9.779181,4000
712377260,0.00017626927,0.0031421438,0.001445912,4000,0,0.09878757,-0.020495983,-9.793562,4000
712381260,-0.0013082034,0.001433407,0.0017708625,4000,0,0.097783044,-0.021578902,-9.823979,4000
712385260,0.0011579823,0.00260154,0.0028090894,4000,0,0.09789524,-0.033863667,-9.793751,4000
712393260,0.00082591147,-0.0003793996,0.0021388931,4000,0,0.1092278,-0.027111597,-9.798587,4000
712397262,-0.00016019025,0.0013427578,0.00047335558,4002,0,0.09593505,-0.010474679,-9.79292,4002
712401260,-0.002140211,-0.004963978,0.0028827442,3998,0,0.08336671,-0.0027503045,-9.799265,3998
712405260,0.00017333745,0.00048434729,0.0013082168,4000,0,0.084425695,-0.017294295,-9.820385,4000
712409260,-0.00063212996,-0.003166009,0.0039409557,4000,0,0.083045706,-0.017821528,-9.817502,4000
712413260,-0.0022756506,-0.0061193635,0.0014923573,4000,0,0.08683862,-0.005765458,-9.791735,4000
712417263,0.00017152244,-0.00036765024,0.001192031,4003,0,0.08818419,-0.0022835312,-9.797447,4003
712421269,0.0015331066,-0.0006681518,-0.00011421945,4006,0,0.09647616,-0.022472814,-9.788326,4006
712425260,0.000368962,0.0013457141,0.00035862575,3991,0,0.094842725,-0.022814235,-9.800651,3991
712429260,-0.0007903962,0.0037861494,0.0009382921,4000,0,0.09567369,-0.004571172,-9.807579,4000
712433260,-0.00037859505,0.0029444236,0.00017607599,4000,0,0.08280517,-0.0049278038,-9.776464,4000
712437260,0.0014378813,0.001768384,0.0005562435,4000,0,0.09320465,-0.021882437,-9.756871,4000
712441260,-0.00015884891,-0.0007738232,0.0004479521,4000,0,0.10445255,-0.020396084,-9.796501,4000
712445260,2.6794458e-05,-0.0033232684,-0.0009688438,4000,0,0.08622642,-0.0051217508,-9.799823,4000
712449260,-0.00069843844,0.005072362,9.9812736e-05,4000,0,0.085310824,-0.012007151,-9.825071,4000
712453260,0.0012993893,0.004171404,0.0047376994,4000,0,0.087891124,-0.02313229,-9.814327,4000
712457260,0.00059714844,-4.9295384e-05,0.0011893755,4000,0,0.09740126,-0.023548568,-9.818304,4000
712461260,-0.0017617964,0.0007091854,0.00017393826,4000,0,0.10117624,-0.014915843,-9.821583,4000
712465260,-0.0016370004,-0.0033446788,0.0011885572,4000,0,0.10325488,-0.0021173253,-9.811969,4000
712469260,-0.0054916665,-0.009277008,-0.00072723074,4000,0,0.096164,-0.014141458,-9.810051,4000
712473260,-0.0034107862,-0.0018859813,0.0033649325,4000,0,0.08077744,-0.016946433,-9.810317,4000
712477260,0.0020078423,0.003765736,0.0028067378,4000,0,0.0945875,-0.01164955,-9.814319,4000
712481260,2.330467e-05,0.0034932743,-0.0013139867,4000,0,0.096188754,0.0011416828,-9.805612,4000
712485260,-0.00016374052,-3.589043e-05,0.00024372623,4000,0,0.083753474,-0.012721244,-9.804619,4000
712489260,0.00035794126,-0.0020533174,-0.00032078635,4000,0,0.08207519,-0.02338451,-9.790931,4000
712493260,-0.001770899,-0.0055634025,-0.00032486935,4000,0,0.09165243,-0.028164035,-9.790682,4000
712497260,-0.0007073779,0.0027158575,-0.00013792806,4000,0,0.086982414,-0.01504626,-9.810372,4000
712501261,0.00075384375,0.0056303744,-0.0020481662,4001,0,0.08367626,-0.019360099,-9.80897,4001
712505262,-0.00015396703,0.0004922823,0.0005693253,4001,0,0.086107954,-0.028032934,-9.809048,4001
712509260,0.00038548958,0.0028254548,0.0012256892,3998,0,0.105151005,-0.025527464,-9.813692,3998
712513262,-0.0010263019,0.0005025665,-0.00037351277,4002,0,0.10855562,-0.015528018,-9.810311,4002
712517260,-0.0009840959,-0.000802361,0.0020593808,3998,0,0.09343808,-0.006252865,-9.82564,3998
712521260,0.0012164913,0.000824047,-0.00019133449,4000,0,0.08302478,-0.019582128,-9.792816,4000
712525260,-0.00080931117,-0.0016281462,2.118584e-05,4000,0,0.08118734,-0.024332616,-9.788082,4000
712529260,0.00024814997,-0.0036414242,-0.00065787305,4000,0,0.098776706,-0.016640387,-9.793533,4000
712533260,-0.0008730333,-0.0044253613,0.0023338364,4000,0,0.093991585,-0.0052036736,-9.794247,4000
712537260,-0.00090973784,-0.0057830904,0.0001903115,4000,0,0.073565856,-0.0006849285,-9.812371,4000
712541260,-0.00056386756,-0.0010127943,0.0017287806,4000,0,0.08562105,-0.01029849,-9.807006,4000
712545260,7.390146e-05,-0.0017571746,0.0017099393,4000,0,0.10774545,-0.020869605,-9.801814,4000
712549260,-0.00059000653,-0.0052494244,0.00019134382,4000,0,0.098364465,-0.009074604,-9.790567,4000
712553260,-0.0007503305,0.0005549852,0.0029157016,4000,0,0.08601228,-0.015408242,-9.786559,4000
712557260,-0.00096595933,-0.002730725,0.0031005412,4000,0,0.08401517,-0.0030169925,-9.816872,4000
712561260,-0.00096055114,-0.0022030282,0.0034263178,4000,0,0.094674215,-0.005967966,-9.809962,4000
712565267,0.000790671,0.0056041777,7.955279e-05,4007,0,0.10174673,-0.011966107,-9.7896805,4007
712569260,-0.002170093,0.0005847734,0.0013522988,3993,0,0.08126954,-0.022211889,-9.807135,3993
712573260,-0.0033137917,-0.0010174048,0.0026309062,4000,0,0.08214392,-0.02122087,-9.815143,4000
712577260,0.0008345144,0.0015320566,0.0025864774,4000,0,0.08055167,-0.02396932,-9.823235,4000
712581260,0.0015785068,0.004087275,0.002493974,4000,0,0.07306697,-0.01449209,-9.809807,4000
712585260,-0.0016159349,-0.0008067365,0.0023892554,4000,0,0.078541376,-0.014514429,-9.773646,4000
712589261,-0.002914706,-0.00430421,0.0012008785,4001,0,0.08131059,-0.024012167,-9.779502,4001
712593260,0.0007797109,-0.0014113147,-0.0005338589,3999,0,0.09641487,-0.032770503,-9.765147,3999
712597260,0.0013155733,-0.0011362837,0.00073736906,4000,0,0.08550387,-0.016321877,-9.808988,4000
712601264,-0.0009268655,-0.0013162842,-8.136444e-05,4004,0,0.083141066,-0.015868776,-9.808021,4004
712605263,4.1704985e-05,-0.0054669483,-3.4189285e-05,3999,0,0.0839204,-0.014866776,-9.822254,3999
712609260,-4.431221e-05,-0.004630763,0.0010407732,3997,0,0.0993378,-0.022451662,-9.790258,3997
712613260,0.002308927,0.0069310535,0.00038712166,4000,0,0.09836111,-0.017811524,-9.772117,4000
712617260,-0.001734786,-0.00069289067,0.0017535822,4000,0,0.06780145,-0.010068692,-9.785298,4000
712621261,0.001344941,0.0067597297,0.001360987,4001,0,0.06725041,-0.010501773,-9.789564,4001
712625260,0.00081696734,0.005163478,0.001564768,3999,0,0.07594768,-0.032530647,-9.785223,3999
712629260,-0.000809355,0.003800257,-0.00012633046,4000,0,0.10123179,-0.026256522,-9.790346,4000
712633261,-0.00091815315,0.0010309354,-0.00026323594,4001,0,0.08801496,-0.011731635,-9.807532,4001
712637275,0.00037756792,0.0037786358,0.0007045504,4014,0,0.09478532,-0.0033631038,-9.832701,4014
712641260,-0.0010064711,-0.0036837019,0.0011757517,3985,0,0.10788625,-0.01683918,-9.819346,3985
712645260,-0.00024094275,0.0028153847,0.0019817436,4000,0,0.0919787,-0.033316884,-9.79978,4000
712649263,0.00070861314,0.00037417433,0.0015110512,4003,0,0.07829903,-0.029641898,-9.787601,4003
712653260,0.00086066616,0.008222095,0.0040480644,3997,0,0.08550522,-0.0024090349,-9.786468,3997
712657260,-0.0005589617,-0.00058351463,0.0019484422,4000,0,0.0825379,0.010061477,-9.791965,4000
712661260,-0.0020808328,-0.005677613,0.00021235946,4000,0,0.091016226,-0.008468343,-9.799942,4000
712665260,-0.0018009042,-0.007470605,-0.001733104,4000,0,0.094145596,-0.0017428517,-9.839045,4000
712669274,-0.00047706295,-0.005888595,0.00039292526,4014,0,0.08712783,-0.010883529,-9.804625,4014
712673260,0.0006908436,-0.00024232003,0.00054899335,3986,0,0.07424725,0.0011561203,-9.797655,3986
712677263,-0.00024100754,0.0051552393,0.0020082635,4003,0,0.08770354,-0.01118895,-9.770466,4003
712681260,0.0007772215,0.004549206,-0.0006766913,3997,0,0.09297607,-0.0123214675,-9.797174,3997
712685260,-0.00087676104,0.001965225,0.0020891295,4000,0,0.069813326,-0.0064698933,-9.807152,4000
712689261,-0.002080863,-0.00014123155,0.00016987817,4001,0,0.083970174,-0.002512278,-9.819714,4001
712693260,0.00081745116,-0.0027025891,0.0014776945,3999,0,0.10159403,-0.022570167,-9.8268,3999
712697260,0.0009222797,0.0017568534,0.0015229768,4000,0,0.09390089,-0.019148208,-9.826743,4000
712701261,5.754056e-05,-0.0017589357,0.0010812698,4001,0,0.08614558,-0.026981892,-9.8044195,4001
712705260,0.00016766608,-0.00057763635,0.000976979,3999,0,0.07488904,-0.013031651,-9.818257,3999
712709260,-0.00048122733,-0.0013147709,0.0003409712,4000,0,0.07926745,-0.032994177,-9.787183,4000
712713260,-0.00033121833,-0.0032694628,0.0027638716,4000,0,0.107818864,-0.041496478,-9.798669,4000
712717260,0.00095621054,0.0056720683,0.0034840456,4000,0,0.1068326,-0.036677487,-9.799126,4000
712721260,0.0015653329,0.001531028,0.0020438929,4000,0,0.09878052,-0.018584117,-9.793487,4000
712725260,-0.0014256249,-0.0071737086,0.0010339009,4000,0,0.092543274,-0.0039286613,-9.822718,4000
712729260,-0.00078205235,-0.0021799742,0.0015081217,4000,0,0.09720235,-0.013703376,-9.802484,4000
712733260,0.00081750756,0.0019681815,0.0016337035,4000,0,0.09911672,-0.025644794,-9.802187,4000
712737260,0.0021984724,0.0063308314,0.0015535005,4000,0,0.086981006,-0.023934413,-9.783433,4000
712741260,6.0502007e-05,0.0020839171,0.00090326724,4000,0,0.09326506,-0.027017877,-9.808272,4000
712745260,-0.00066558603,-0.00665556,0.001984548,4000,0,0.100850314,-0.046074945,-9.812911,4000
712749260,-0.0014217994,0.0016545204,0.0012457178,4000,0,0.10277921,-0.046706848,-9.840039,4000
712753260,-0.0012948839,-0.0028310823,0.0025727511,4000,0,0.10041791,-0.0142495865,-9.837263,4000
712757260,-0.0018205446,-0.0021960465,0.0029087667,4000,0,0.093760416,0.005468496,-9.807434,4000
712761261,-0.0011090172,0.00048547678,0.0010114395,4001,0,0.09265541,-0.0076515367,-9.788548,4001
712765260,-0.00038482697,-0.0021601175,-0.0002027118,3999,0,0.09601669,-0.02055929,-9.78781,3999
712769263,-0.0013374529,-0.003654727,0.000116073104,4003,0,0.11032001,-0.012401955,-9.791755,4003
712773278,-0.0016290653,-0.00663705,0.0014693438,4015,0,0.094591856,-0.021124035,-9.789171,4015
712777260,-0.0018456861,-0.0057993247,0.0015897539,3982,0,0.08518499,-0.014143423,-9.803732,3982
712909261,-0.0014158232,-0.0013317837,0.0017409927,4000,0,0.09435489,-0.022320231,-9.800636,4000
712913260,-7.892804e-05,0.0035867807,-0.0008850715,3999,0,0.092808105,-0.012680187,-9.807632,3999
712917260,0.0015193665,0.007000562,-0.0008749787,4000,0,0.09354562,-0.029591791,-9.792148,4000
712921260,-0.0016168217,4.471696e-05,0.0023990425,4000,0,0.106168136,-0.024607329,-9.809903,4000
712925260,0.00083393895,0.00663558,0.0026452853,4000,0,0.10983448,-0.0058540534,-9.818794,4000
712929260,-0.00068959035,0.005599316,0.00063788163,4000,0,0.10512711,0.0042800885,-9.787205,4000
712933263,-4.4657856e-05,0.003144143,0.001023899,4003,0,0.09845906,0.001854357,-9.784745,4003
712937260,-0.0016734988,-0.00311184,-0.00082995446,3997,0,0.075851604,-0.03344256,-9.790445,3997
712941260,0.0014380339,0.005173397,0.0005951606,4000,0,0.09555611,-0.031720717,-9.814081,4000
712945260,-0.0002552155,0.0016568433,0.0011170969,4000,0,0.09382628,-0.0081146285,-9.830886,4000
712949260,-0.00018191763,0.0031683957,-0.00078355556,4000,0,0.087176256,-0.0028905426,-9.827858,4000
712953261,-0.0020492398,-0.0043143663,0.0020367492,4001,0,0.08821001,-0.028741118,-9.82343,4001
712957260,-0.0030447748,-0.004717449,-7.666563e-05,3999,0,0.10575323,-0.023205709,-9.804221,3999
712961260,-0.0011174785,-0.0041903025,0.0005309959,4000,0,0.10283129,-0.01888211,-9.808829,4000
712965260,-0.0019595362,-0.005367859,0.0010648734,4000,0,0.09711211,-0.005035251,-9.807147,4000
712969260,0.00025349244,-0.00088439015,-0.000199061,4000,0,0.10045024,-0.025903603,-9.780815,4000
712973260,0.00017925365,0.002181538,0.0016477129,4000,0,0.10112793,-0.02236739,-9.796954,4000
712977260,0.0009488958,0.004721785,0.0030493443,4000,0,0.096697815,-0.012216294,-9.803883,4000
712981261,0.00067928305,-0.0015212311,-0.0002136793,4001,0,0.08930679,-0.007334163,-9.815591,4001
712985260,0.001741868,0.00071358116,-0.00031365233,3999,0,0.08535118,0.0010280093,-9.794974,3999
712989261,0.000297857,-0.0036793456,0.0023223297,4001,0,0.10592942,-0.015685346,-9.796009,4001
712993261,-0.00048862677,-0.0064205634,-3.7723436e-05,4000,0,0.092701495,-0.022657355,-9.813439,4000
712997260,0.000514565,0.0037611944,0.0025085215,3999,0,0.0844613,-0.01639632,-9.818467,3999
713001260,-0.00063461077,-0.0006984809,0.003439855,4000,0,0.094566196,-0.02249072,-9.7910595,4000
713005260,0.0015587094,0.004309653,0.0014348471,4000,0,0.10641719,-0.03145544,-9.795724,4000
713009260,0.000661476,0.00030026506,-0.0012561912,4000,0,0.106427334,-0.004387313,-9.822507,4000
713013260,-0.0026493736,-0.0045872517,-0.0018948839,4000,0,0.09469572,0.006281344,-9.835962,4000
713017263,0.0013399334,-0.0030256056,0.0010358552,4003,0,0.09181402,0.011066333,-9.836336,4003
713021260,0.0023213914,0.0012131731,0.0024497602,3997,0,0.09631168,-0.005299034,-9.825679,3997
713025260,-0.0012696525,-0.0032019233,-0.0021150624,4000,0,0.10104389,-0.0041506924,-9.8015,4000
713029260,0.0013159368,-0.0018451662,-0.00033307532,4000,0,0.09404621,-0.0041277353,-9.761517,4000
713033261,-0.0017588863,0.00058888126,0.00059417036,4001,0,0.06703485,-0.02226941,-9.800176,4001
713037262,0.00059768825,0.0056945565,0.0012553474,4001,0,0.07621608,-0.01948838,-9.797443,4001
713041260,-0.0016159886,-0.0042126887,0.0024566094,3998,0,0.083247885,-0.03421378,-9.805805,3998
713045263,0.0005918011,0.0036771973,0.00091170165,4003,0,0.086501844,-0.012644098,-9.811798,4003
713049260,-0.000804676,0.0032671413,8.085917e-05,3997,0,0.08918967,0.011386591,-9.822492,3997
713053260,0.0014344103,0.0023027991,0.0003496299,4000,0,0.07812539,0.006317229,-9.797642,4000
713057260,0.0005144304,0.00504537,0.0025268605,4000,0,0.086382985,-0.015904605,-9.818486,4000
713061260,5.5306962e-05,-0.00057383487,0.0006587686,4000,0,0.094861075,-0.02855319,-9.798836,4000
713065260,0.00030811195,0.0024862094,0.0029259527,4000,0,0.09478033,-0.013678915,-9.803877,4000
713069260,-0.00011126377,0.0038656208,0.003268904,4000,0,0.08293952,-0.022376552,-9.796157,4000
713073263,-0.0002547505,0.0014404468,0.0012200876,4003,0,0.09085296,-0.029228382,-9.781182,4003
713077261,-0.00096527574,0.0024821856,0.0031612958,3998,0,0.08869847,-0.021417828,-9.79578,3998
713081260,-0.0025942419,-0.0056892033,0.0012849978,3999,0,0.0917205,0.0046013705,-9.814543,3999
713085261,-0.001021865,-0.002163851,-8.5468244e-05,4001,0,0.08230496,-0.003635965,-9.80496,4001
713089260,-0.00052400585,-0.00334061,-0.0019263455,3999,0,0.08633148,-0.010995853,-9.794149,3999
713093273,0.0010225374,0.00037475914,0.0013981576,4013,0,0.083237275,-0.0067961626,-9.776056,4013
713097260,0.0019564508,0.0029556497,-0.0006121914,3987,0,0.07999371,-0.013121454,-9.775969,3987
713113260,0.00090012344,-0.0003648055,0.00043544138,4000,0,0.09932309,6.6387496e-05,-9.787262,4000
713117260,-0.00026020355,0.0032536786,0.00092272344,4000,0,0.09495187,-0.0051555415,-9.792289,4000
713121260,-0.0012332494,-0.00269804,1.839783e-05,4000,0,0.087241985,-0.014247978,-9.796619,4000
713125267,-0.00044309755,0.00515129,0.0026512085,4007,0,0.08101915,-0.027454974,-9.767699,4007
713129260,0.00042784878,0.002479861,0.0036696,3993,0,0.07865393,-0.02319234,-9.768039,3993
713133262,-0.00044227365,0.0014207539,0.0027143427,4002,0,0.09451397,-0.012379486,-9.791028,4002
713137260,-2.3947434e-05,0.0013251011,0.002173208,3998,0,0.09714575,-0.022748183,-9.805444,3998
713141260,-0.0018357289,-0.0045239055,0.0019239573,4000,0,0.093988284,-0.0071183187,-9.796601,4000
713145260,-0.00021131977,-0.00082118146,0.003642208,4000,0,0.09172533,-0.019615287,-9.786775,4000
713149260,-0.0018736138,-0.007693246,-0.00013468943,4000,0,0.09112025,-0.017618744,-9.793871,4000
713153261,-0.003346206,-0.0061214357,0.001186601,4001,0,0.09687473,-0.018505143,-9.7921715,4001
713157260,-0.0020800126,-0.0033352666,0.00023973861,3999,0,0.092095666,-0.025762513,-9.793026,3999
713161260,-6.184693e-05,0.0007110138,-7.0299066e-05,4000,0,0.09817017,-0.03902278,-9.8018465,4000
713165260,0.00063114736,0.0028873412,0.0035592634,4000,0,0.101378776,-0.033629723,-9.80808,4000
713169261,2.1646101e-05,-0.0007503793,-0.0015724354,4001,0,0.09329658,-0.011798733,-9.806631,4001
713173262,-4.5820972e-05,0.0033609162,0.00092044385,4001,0,0.08702029,-0.018872654,-9.809039,4001
713177261,0.00095206726,0.004716854,0.0032602397,3999,0,0.08181494,-0.014773916,-9.833138,3999
713181260,-0.0015292132,-0.0015398508,0.0013146664,3999,0,0.08399609,-0.023078196,-9.818049,3999
713185261,-0.0017190007,-0.0057053557,0.0026532048,4001,0,0.08820835,-0.006123998,-9.796065,4001
713189260,0.0014746997,0.00025410883,0.002666882,3999,0,0.094665535,-0.012973451,-9.782945,3999
713193261,0.003357757,0.007192795,0.0007988334,4001,0,0.103345335,-0.022250896,-9.806975,4001
713197260,0.00084073277,0.0023899868,0.0028052442,3999,0,0.110443585,-0.032636594,-9.809252,3999
713201260,-0.001461269,-0.0031090048,-0.0008347605,4000,0,0.103112034,-0.027163723,-9.791836,4000
713205261,-0.00060090754,-0.0045044576,-0.0003317861,4001,0,0.107280016,-0.038273465,-9.828567,4001
713209260,0.00065484544,-0.0061876294,-0.00176414,3999,0,0.09737861,-0.02100733,-9.79072,3999
713213261,-0.0016378778,-0.0069680493,0.0011488375,4001,0,0.102770545,-0.010090433,-9.785394,4001
713217260,-0.0017468189,-0.008457295,0.0011309016,3999,0,0.09082575,0.0060012704,-9.810254,3999
713221261,0.0009351688,-0.0018687074,0.002225856,4001,0,0.09174363,-0.0006746111,-9.813174,4001
713225260,-0.00043590018,-0.005682349,0.0022030142,3999,0,0.09899361,-0.009887536,-9.809992,3999
713229260,-0.0036540055,-0.006331338,0.0015089937,4000,0,0.10149803,-0.018623065,-9.831146,4000
713233260,-0.0009820624,0.0008985113,0.0021851382,4000,0,0.09176861,0.001701097,-9.811728,4000
713237261,-0.00046654823,0.0009098863,0.001218008,4001,0,0.09360917,0.0042964,-9.788428,4001
713241260,-0.00033589598,-0.0027246235,0.002557475,3999,0,0.09862765,-0.00110672,-9.775272,3999
713245260,0.00038831215,0.000694342,0.0014136215,4000,0,0.10235026,-0.012987769,-9.781652,4000
713249260,-0.00059140363,0.0016659845,0.00016478809,4000,0,0.09262514,-0.01527377,-9.790072,4000
713253262,0.00046533238,0.0033783265,-4.6515303e-05,4002,0,0.091518074,-0.01803382,-9.797638,4002
713257260,-0.00060735596,-0.0030053544,-0.0007410973,3998,0,0.09863091,-0.015121473,-9.80254,3998
713261260,3.5940015e-05,0.0025247275,-0.00047510475,4000,0,0.101721734,-0.02483687,-9.790334,4000
713265262,-0.00088115636,-0.0003739044,0.0018489358,4002,0,0.09429363,-0.019256018,-9.776829,4002
713269260,-0.0007860287,-0.0014307321,0.0011962343,3998,0,0.089129716,-0.007061563,-9.798461,3998
713273260,-0.00023592084,-0.0011251308,0.0022543834,4000,0,0.07330027,0.0014054705,-9.827087,4000
713277260,-0.00058539415,-0.0033395248,0.00053213816,4000,0,0.08441774,-0.0020074253,-9.821147,4000
713281261,0.00142318,-0.0033260242,-0.0004607377,4001,0,0.0919166,-0.018956589,-9.805757,4001
713285263,-0.00092706794,-0.0044952366,-0.0007531893,4002,0,0.09281502,-0.013652225,-9.806684,4002
713289260,-0.00068645616,0.0010215635,0.0007978384,3997,0,0.0968409,-0.026689064,-9.795498,3997
713293260,-0.0008056908,0.0015618689,6.1006605e-05,4000,0,0.088687256,-0.020947285,-9.796238,4000
713297261,-0.0009022558,-0.0022794306,0.0006563002,4001,0,0.09455699,-0.019285694,-9.817207,4001
713301261,0.00071028137,-0.0020733187,0.0015884532,4000,0,0.0790463,-0.018815069,-9.854529,4000
713305260,-0.00016330057,-0.0001384433,0.0002445493,3999,0,0.08069548,-0.019423123,-9.8422165,3999
713317260,-0.00017384274,-0.0022657188,-0.00031422122,3999,0,0.09285801,-0.011773183,-9.804289,3999
713321260,0.001148739,0.002387615,0.002271345,4000,0,0.092476,-0.00625494,-9.826093,4000
713325260,0.00017866482,0.0019668546,0.0016445613,4000,0,0.08763575,-0.0028735087,-9.828355,4000
713329260,0.0011540073,0.0015328485,0.002580916,4000,0,0.09972879,-0.028772548,-9.822191,4000
713333260,6.209732e-05,-0.003237407,0.0009490116,4000,0,0.101355456,-0.02076795,-9.811684,4000
713337260,0.0012344877,0.0051598093,0.0013444682,4000,0,0.10576982,-0.0064470065,-9.80353,4000
713341260,0.0010911616,-0.0011923199,-0.0009619667,4000,0,0.10200767,-0.022940429,-9.828358,4000
713345260,0.00026605977,0.0055020284,0.00029250357,4000,0,0.090074085,-0.02832497,-9.827227,4000
713349261,0.000122026766,0.0022206083,-0.0016511177,4001,0,0.0927922,-0.034656446,-9.80789,4001
713353260,0.003131921,0.007847595,-0.00014435407,3999,0,0.09721828,-0.024266299,-9.803041,3999
713357260,0.0017467893,0.008479541,-1.0186448e-05,4000,0,0.0953311,-0.013244821,-9.799142,4000
713361261,-0.0011311588,0.0003933944,-0.0002659979,4001,0,0.0979611,-0.010545925,-9.786301,4001
713365261,-0.00089769944,-0.0003742764,0.0007894692,4000,0,0.11345777,-0.01737645,-9.777589,4000
713369260,0.0010508051,0.007916017,0.00276348,3999,0,0.10938933,-0.025318414,-9.79,3999
713374060,0.00046060397,0.003904795,0.001502457,4800,0,0.100410335,-0.027518705,-9.806269,4800
713378066,0.0016677772,0.0034620173,0.0015295923,4006,0,0.08268168,-0.01121699,-9.811229,4006
713382060,0.0014183874,0.0011397075,-0.0005173363,3994,0,0.092020914,-0.013732217,-9.797658,3994
713386060,0.0018506703,0.0018850546,-0.00019485144,4000,0,0.08579814,-0.016633438,-9.79709,4000
713390060,7.879297e-05,-0.0066587543,0.0020747895,4000,0,0.0944424,-0.026173323,-9.797851,4000
713394060,-0.00052857446,-0.0037018398,0.0036153155,4000,0,0.094667405,-0.025441315,-9.78261,4000
713398060,-0.00043755834,-0.0035798345,0.002868697,4000,0,0.096471086,-0.03010695,-9.7893505,4000
713402060,-0.00013068589,0.0040735556,0.0018955924,4000,0,0.091429204,-0.026265183,-9.810145,4000
713406060,-0.0020662395,0.00038071309,0.0010267302,4000,0,0.08618413,-0.018635938,-9.829926,4000
713410060,-0.00018189088,0.0013593003,-0.0006978797,4000,0,0.08122915,-0.015177044,-9.839314,4000
713414061,0.00060291163,-0.0044097644,0.0014557026,4001,0,0.09155834,-0.00390921,-9.822255,4001
713418061,-0.0035662758,-0.014832591,0.00045074138,4000,0,0.09329536,-0.011748316,-9.806673,4000
713422060,-0.0009341515,-0.0051379926,-0.0008651207,3999,0,0.09031784,-0.024529712,-9.812491,3999
713426060,-0.0025152974,-0.0066266134,-0.00032465372,4000,0,0.09006797,-0.013887982,-9.826616,4000
713430060,-0.0005494568,-0.0050675515,0.0026395377,4000,0,0.094016045,-0.014444943,-9.820035,4000
713434061,0.0018780163,0.00080062187,0.0013889658,4001,0,0.107105516,-0.0050033433,-9.811115,4001
713438060,-0.00034143764,-0.0005920811,0.0022628184,3999,0,0.10762551,-0.021272667,-9.808939,3999
713442060,-0.00015792348,0.0005942832,0.00078344287,4000,0,0.09503158,-0.03358879,-9.817454,4000
713446060,0.0016314422,-0.00034661006,-0.0005361732,4000,0,0.09063783,-0.03400715,-9.821163,4000
713450060,0.00036215613,0.0030469717,-0.00015538241,4000,0,0.08435856,-0.030056313,-9.798174,4000
713454060,-0.0007695236,-0.0010122891,0.0021581533,4000,0,0.086930126,-0.021196384,-9.815225,4000
713458060,-0.00034666856,0.0041994397,0.0019998113,4000,0,0.10075349,-0.023872016,-9.790789,4000
713462060,0.0002716037,0.00017084203,0.0008777424,4000,0,0.11371536,-0.012899134,-9.787574,4000
713466060,-0.00048344585,0.00017560797,0.00025189205,4000,0,0.114410855,-0.012726368,-9.804199,4000
713470060,-0.00026277642,0.0016609965,0.00069122924,4000,0,0.09170272,-0.00319765,-9.843145,4000
713474060,-0.00040429865,0.0011517804,-0.0013362817,4000,0,0.10076135,-0.0141623,-9.845345,4000
713478060,0.0014602004,0.0010034882,0.0021415134,4000,0,0.10420194,-0.013089566,-9.811731,4000
713482060,-0.00036125546,0.0028258094,0.0011325362,4000,0,0.10661549,-0.0016516149,-9.811545,4000
713486060,-0.0006672369,-0.0017577788,0.0019350811,4000,0,0.10594702,-0.00185075,-9.795839,4000
713490060,-0.000807345,-0.003335205,4.0982313e-06,4000,0,0.10961127,-0.017501265,-9.805124,4000
713494060,-0.000674865,0.0025045148,0.0013450328,4000,0,0.10146674,-0.033545453,-9.777144,4000
713498062,-0.0011127782,0.0076083876,0.00088304107,4002,0,0.10555869,-0.031011105,-9.788156,4002
713502061,0.0021740834,0.0123108085,2.7642294e-05,3999,0,0.10701775,-0.010986406,-9.788844,3999
713506060,0.00028089163,-0.0031178077,0.0011584121,3999,0,0.11464483,-0.009046646,-9.790851,3999
713510063,0.0009359364,-0.0006414088,0.0011823006,4003,0,0.09456795,-0.015021478,-9.7885275,4003
713514060,-0.00026784014,-0.0030189876,0.0004237257,3997,0,0.099117465,-0.021342725,-9.802136,3997
713518060,-0.0010877419,0.00057860505,0.0021827316,4000,0,0.09300307,-0.011075946,-9.823298,4000
713522060,-0.0016588016,-0.0051412103,-9.858253e-07,4000,0,0.09825446,0.0019865253,-9.797081,4000
713526061,0.00033426582,0.0036083553,-0.0017456341,4001,0,0.09582097,-0.001794458,-9.799468,4001
713530060,-0.0002641784,0.0032588036,0.000603221,3999,0,0.08348939,-0.0047398023,-9.792159,3999
713534061,-0.00046796142,-0.00045967958,0.0009919353,4001,0,0.07866249,-0.0049386495,-9.822351,4001
713538062,9.986152e-05,-0.0014552254,0.0032032558,4001,0,0.07009279,-0.012070084,-9.818641,4001
713542060,-2.4090072e-05,0.0019636408,0.0021808995,3998,0,0.089459814,-0.019379178,-9.806701,3998
713546060,0.0011940419,0.0013646842,-0.00103609,4000,0,0.081436366,-0.009073997,-9.827843,4000
713550060,0.002995014,0.0012625603,-0.0017132072,4000,0,0.08117797,-0.008458687,-9.842078,4000
713554060,-0.0006219237,-0.001896692,0.0044884244,4000,0,0.07500048,-0.015021348,-9.811639,4000
713558060,0.00020036825,0.005472174,0.002850912,4000,0,0.08511272,-0.017061789,-9.808485,4000
713562060,0.00035470328,-0.0010535086,0.0056505008,4000,0,0.10474145,-0.015821787,-9.780344,4000
713566063,0.00022734962,0.0005525345,0.004394317,4003,0,0.09891765,-0.012458473,-9.786334,4003
713570060,-0.0012851225,-0.002411347,0.0031099226,3997,0,0.103759155,-0.016471678,-9.810716,3997
713574060,0.00032552317,0.004706991,0.0039096097,4000,0,0.08896804,-0.02383839,-9.835725,4000
713578060,8.118982e-05,0.0040927185,0.0020974271,4000,0,0.086944096,-0.018507548,-9.841346,4000
713582062,-2.4835945e-05,-0.0020824675,0.002134511,4002,0,0.06891557,-0.00044776365,-9.831328,4002
713586060,0.00042781295,0.003010338,0.0036755018,3998,0,0.089108795,-0.001941569,-9.826937,3998
713590060,-0.00066198065,0.0028087767,0.0020997107,4000,0,0.08903774,-0.00034051118,-9.805013,4000
713594062,0.0005895691,6.179008e-05,0.0007636314,4002,0,0.09790281,0.0028762552,-9.789471,4002
713598062,0.00092885277,0.0027139238,0.0018542572,4000,0,0.120358445,-0.0045898906,-9.765694,4000
713602060,0.002076968,0.005173716,0.0005843711,3998,0,0.08829828,-0.0071467855,-9.791319,3998
713606060,-0.002278439,-0.0023904918,0.0011041155,4000,0,0.10144123,0.005453753,-9.806145,4000
713610066,-0.0006854598,0.00069843663,0.0008991842,4006,0,0.089880906,-0.001507815,-9.782252,4006
713614060,-0.00045336247,0.00015553347,0.0018502398,3994,0,0.08803597,-0.017336057,-9.779061,3994
713618060,0.00079809927,0.0039979964,0.000597176,4000,0,0.08351622,-0.015745241,-9.7899,4000
713622060,-3.3520028e-05,0.0023947717,0.0016533709,4000,0,0.07394334,-0.01733899,-9.817332,4000
713626062,-0.00042599914,-7.554526e-05,0.0035478026,4002,0,0.08521524,-0.030094877,-9.83052,4002
713630063,0.00068333023,0.0016642439,0.00014826334,4001,0,0.08730454,-0.031620618,-9.82061,4001
713634060,0.0011374826,0.0018616298,0.0016272028,3997,0,0.07589898,-0.027250169,-9.788004,3997
713638060,0.0025479728,0.0020559125,0.0032009666,4000,0,0.07481706,-0.0053459005,-9.822433,4000
713642061,0.0011326429,0.007079957,0.0013684196,4001,0,0.07272229,0.0024242264,-9.832773,4001
713646061,-0.0011040265,-0.00013762385,0.0012181462,4000,0,0.08301372,-0.011561231,-9.818892,4000
713650062,-0.00067276566,-0.0008003263,0.0016270002,4001,0,0.08479477,-0.012776823,-9.799403,4001
713654060,-0.0006082519,0.000401525,-0.00080770557,3998,0,0.09408973,-0.0076513733,-9.788577,3998
713658063,-0.003044338,-0.008758464,-0.00012623312,4003,0,0.08305892,-0.0035080963,-9.816848,4003
713662060,-0.001984988,-0.0023701256,-0.00039019674,3997,0,0.08117093,-0.017212639,-9.787513,3997
713666060,0.0014162385,-0.0023681873,-0.0006621,4000,0,0.08369633,-0.04039332,-9.807795,4000
713670061,0.00038918856,0.0033554288,0.0014420971,4001,0,0.088527404,-0.023709282,-9.80389,4001
713674061,-0.0016120535,0.002598894,0.0025353655,4000,0,0.08829224,-0.0116185825,-9.819855,4000
713678063,-0.0010074439,-0.0021678559,0.00076914695,4002,0,0.09291498,-0.021366565,-9.80157,4002
713682061,-0.00045559226,-0.00037505705,0.0018401403,3998,0,0.101677805,-0.0200308,-9.792654,3998
713686062,-0.0006658149,0.0033489498,0.0019953009,4001,0,0.09449326,-0.0071235155,-9.792852,4001
713690060,0.00063407223,-0.0016696082,0.0032978689,3998,0,0.08466698,0.000695345,-9.806861,3998
713694061,-0.0018664679,-0.0018444094,0.00025236348,4001,0,0.09024924,-0.011632698,-9.816597,4001
713698061,0.0006569607,0.0029607206,-0.0014386034,4000,0,0.09520386,-0.028931817,-9.806918,4000
713702060,-0.002195456,-0.00577721,-0.000114436836,3999,0,0.08882451,-0.029085098,-9.786451,3999
713706060,-1.965193e-05,-0.0030433415,0.002441602,4000,0,0.081287235,-0.012193208,-9.808376,4000
713710060,0.0016064955,-0.0025305296,0.0041223336,4000,0,0.08843187,-0.014087195,-9.810886,4000
713714060,0.0014435609,-0.00046912732,0.0008514637,4000,0,0.09075813,-0.019149296,-9.787686,4000
713718060,0.00090359745,0.0024088172,0.00035985056,4000,0,0.085108705,-0.016355062,-9.782792,4000
713722061,0.0002404503,-0.0024696663,-0.0009622497,4001,0,0.08404133,-0.011481653,-9.787969,4001
713726062,-0.0005910405,-0.0061023347,0.00018115241,4001,0,0.08416354,-0.014110778,-9.808453,4001
713730060,-0.0015754501,-0.008102809,-0.001524984,3998,0,0.08728272,-0.03308587,-9.8224945,3998
713734061,-0.0017363139,-0.008778954,0.0016598634,4001,0,0.07457003,-0.019188192,-9.781726,4001
713738060,-0.0008149383,-0.00035135236,-0.0003855297,3999,0,0.08407445,-0.014357344,-9.785635,3999
713742060,-0.0018699219,-0.004398046,0.000115520554,4000,0,0.089073546,-0.0008144296,-9.801242,4000
713746062,-0.0014364962,-0.00748821,0.000498666,4002,0,0.0797322,-0.028360618,-9.815665,4002
713750063,-0.00037922876,-0.004188275,0.00019931096,4001,0,0.09179916,-0.035102665,-9.809302,4001
713754060,0.0006632242,-0.0010836615,-0.0011668223,3997,0,0.088839404,-0.0114889415,-9.787569,3997
713758061,-0.00056632585,-0.0020701077,0.0014993048,4001,0,0.10600282,-0.0028987632,-9.789157,4001
713762062,-0.00034486983,0.0018562863,0.0020783732,4001,0,0.09280125,-0.006002272,-9.807544,4001
713766060,-0.00053303526,-0.0005009328,0.00354427,3998,0,0.07683243,-0.023564523,-9.81651,3998
713770061,0.00038421515,-0.0017494202,0.0011722575,4001,0,0.093272254,-0.030836646,-9.807852,4001
713774060,0.000789699,-0.0012047507,7.302033e-07,3999,0,0.088754535,-0.016687151,-9.792388,3999
713778069,0.00076335773,0.005637349,-0.0015176664,4009,0,0.08153398,-0.0063433526,-9.82164,4009
713782060,0.00036896425,0.0058045303,0.0004120672,3991,0,0.08898205,-0.03178773,-9.806821,3991
713786060,-0.0010915187,0.0008978811,0.0020808596,4000,0,0.10781737,-0.024090435,-9.769087,4000
713790060,0.001001339,0.006777833,-1.6714952e-05,4000,0,0.098610386,-0.00061733375,-9.776221,4000
713794063,-0.001123904,-0.00056689425,0.00014851245,4003,0,0.0979735,-0.005305029,-9.785759,4003
713798061,-0.0027017826,-0.0029218255,0.0012128347,3998,0,0.09151581,-0.019006994,-9.79865,3998
713802060,-0.001756017,-0.0055725053,0.00052670296,3999,0,0.08265142,-0.032055058,-9.785337,3999
713806062,9.791278e-05,-0.0008152581,0.0031043661,4002,0,0.08695348,-0.033011105,-9.785428,4002
713810060,-0.0011879894,-0.00070393796,0.0025959073,3998,0,0.077165015,-0.012469614,-9.824951,3998
713814060,0.00047080882,0.0024158116,0.00015485343,4000,0,0.08703985,-0.0003285678,-9.809242,4000
713818060,-0.0003000816,0.001366229,-0.0014405863,4000,0,0.095010154,-0.016227534,-9.790594,4000
713822060,-0.00036783278,0.00048653907,0.0007857179,4000,0,0.09460323,-0.010671038,-9.812422,4000
713826061,0.00027564575,-0.0034504442,0.0011553073,4001,0,0.082935385,-0.011523919,-9.822182,4001
713830061,0.0017768372,0.0069722044,0.0016747549,4000,0,0.09311893,-0.006372144,-9.816585,4000
713834060,0.0016427496,-0.0012069207,9.243383e-05,3999,0,0.09276288,-0.01744167,-9.81005,3999
713838061,-0.0013032281,-0.0061195027,0.0020022204,4001,0,0.07792165,-0.043383896,-9.836726,4001
713842060,-0.0005659378,-0.003471845,0.0019125103,3999,0,0.0919726,-0.022981118,-9.825358,3999
713846062,0.0030704795,0.0009976958,0.0026483089,4002,0,0.10547598,-0.005678619,-9.794926,4002
713850060,0.002220009,0.0038720213,0.002695921,3998,0,0.10282245,-0.007728725,-9.782074,3998
713854060,-0.0018578289,-0.0030222195,0.0007706403,4000,0,0.09769617,-0.016585657,-9.801563,4000
713858062,-0.0006781315,-0.0010086778,0.0013057861,4002,0,0.098512486,-0.016171418,-9.836767,4002
713862061,-0.0027118807,-0.009297858,0.0006063896,3999,0,0.10180947,-0.006896261,-9.812934,3999
713866060,-0.0006906827,-0.0005725541,0.00056611747,3999,0,0.0957374,-0.0146421585,-9.803898,3999
713870060,-0.0009868572,-0.0047315443,0.0016887946,4000,0,0.116285264,-0.031815432,-9.804958,4000
713874062,-0.0001279864,-0.0018723402,0.002350605,4002,0,0.116343416,-0.014333068,-9.830399,4002
713878061,-0.002807439,-0.0072851563,0.0012700182,3999,0,0.106216006,-0.013178697,-9.807385,3999
713882061,-0.0018451815,-0.0060107578,0.0014809261,4000,0,0.09551443,-0.016724993,-9.789178,4000
713886061,0.002170912,-0.00024474182,-0.00011874133,4000,0,0.09108898,-0.016957173,-9.768198,4000
713890060,0.0023995037,0.0030429123,0.0007672127,3999,0,0.10251485,-0.026957842,-9.772307,3999
713894060,-0.00024457125,-5.4008342e-05,0.0017352921,4000,0,0.10090271,-0.02890425,-9.80939,4000
713898060,-0.0018435217,0.0021801211,0.0015759881,4000,0,0.095706455,-0.010396317,-9.805702,4000
713902062,-0.0005098785,-0.0026802556,-0.0012702596,4002,0,0.0945211,-0.01494556,-9.818623,4002
713906060,-0.001107894,-0.004731048,0.00095220667,3998,0,0.08437409,-0.03303365,-9.824828,3998
713918060,-0.0014319221,0.001440699,0.0009168864,4000,0,0.07854349,-0.018612228,-9.801201,4000
713922060,0.0019982024,0.005367133,0.0021849968,4000,0,0.09393991,-0.0022933432,-9.797072,4000
713926062,0.00069137115,0.0037846563,0.0005924911,4002,0,0.08328228,-0.007901361,-9.802665,4002
713930063,-0.00059973693,0.0019945807,-0.00036360748,4001,0,0.075980075,-0.0054804003,-9.811045,4001
713934063,-0.0015503333,0.0012388597,0.00017681201,4000,0,0.08575623,-0.005119708,-9.799837,4000
713938061,0.00022833624,0.0038173348,-0.0016342994,3998,0,0.09596931,-0.024347823,-9.790227,3998
713942060,0.0018729463,0.0038902017,0.0011055247,3999,0,0.09121048,-0.022938538,-9.788706,3999
713946060,0.001497532,0.0064795576,-0.0020507597,4000,0,0.09495734,-0.012842355,-9.793417,4000
713950062,0.0010171852,0.0012414004,0.0006616379,4002,0,0.07337877,0.010081082,-9.795577,4002
713954061,0.001389872,-0.002311996,0.0039149895,3999,0,0.085871644,-0.012221969,-9.765194,3999
713958063,0.00059462123,-0.000576779,0.0010764955,4002,0,0.10407876,-0.0037767743,-9.792043,4002
713962060,-0.0015350356,-0.0015383671,0.000994463,3997,0,0.1031573,0.00048133306,-9.790528,3997
713966061,-0.0003081173,0.00094455795,-0.0018711591,4001,0,0.08957374,0.0039544124,-9.800245,4001
713970060,0.00036784096,-0.0017390349,0.00021494829,3999,0,0.08736281,0.012754084,-9.81722,3999
713974061,0.0014731783,-0.0010229414,0.0026509135,4001,0,0.09072049,-0.012393244,-9.78909,4001
713978062,-0.00035247105,-0.0010115103,0.0016193578,4001,0,0.07939965,-0.019061327,-9.834551,4001
713982061,0.0016519268,0.0015477117,0.00065692584,3999,0,0.0805994,-0.009686651,-9.821148,3999
713986063,0.0013363617,0.0010227177,0.00086897716,4002,0,0.09775992,0.0018632743,-9.825601,4002
713990062,0.0013562905,0.0012106625,0.0021487656,3999,0,0.10528531,-0.008711991,-9.777375,3999
713994060,-0.0010782407,-0.008050215,0.0028283566,3998,0,0.07836221,0.004732189,-9.784355,3998
713998062,0.0023073212,-0.0009040319,0.0015742577,4002,0,0.080201864,0.006197028,-9.78818,4002
714002062,-8.693923e-05,-0.00086798175,-0.0013644992,4000,0,0.05029256,0.0014215828,-9.827661,4000
714006060,-0.0018489553,-0.0023899178,0.0013101131,3998,0,0.061864343,-0.012964778,-9.823732,3998
714010060,-0.0014069307,0.0015393321,0.0024111606,4000,0,0.0877755,-0.017141094,-9.7910185,4000
714014060,-0.0026920352,0.00058408134,0.0017853947,4000,0,0.10357642,-0.0128454175,-9.793561,4000
714018060,-0.0030130337,-0.0075035715,0.0016969573,4000,0,0.10343847,-0.0046279724,-9.801542,4000
714022061,-0.0003459891,-0.003675234,0.002014217,4001,0,0.10414328,-0.0038227062,-9.788709,4001
714026060,0.0004792072,0.0029403095,0.0004807532,3999,0,0.105468936,-0.016487267,-9.767978,3999
714030060,0.0013696605,-6.7038694e-05,0.0027710486,4000,0,0.08992607,-0.008221333,-9.779955,4000
714034060,-0.001964358,-0.0036608449,0.00076547335,4000,0,0.09872643,-0.0042065065,-9.797172,4000
714038061,0.00048481213,0.002700641,0.0010067434,4001,0,0.09197915,0.0017709107,-9.831006,4001
714042062,0.0011562163,-0.0002773103,0.002666839,4001,0,0.091921315,0.0076522427,-9.829722,4001
714046060,0.0026365705,-0.0041013574,0.0021712896,3998,0,0.09354926,-0.024319122,-9.7911625,3998
714050060,0.0016796085,-6.125652e-05,0.0022338845,4000,0,0.09698742,-0.010531914,-9.786759,4000
714054060,-0.0018769501,-0.003223881,-0.0002954251,4000,0,0.08172007,-0.009298003,-9.811195,4000
714058061,-0.0011271982,-0.006844843,-3.1109335e-05,4001,0,0.0968377,-0.022861127,-9.795464,4001
714062060,-0.000890028,-0.0064348606,0.0013528145,3999,0,0.08366245,-0.038304575,-9.782098,3999
714066061,-0.00020137039,0.0039210087,-0.0018362891,4001,0,0.082014926,-0.027641516,-9.793377,4001
714070063,0.0006936461,0.0018750655,0.00057038205,4002,0,0.089403234,-0.02890739,-9.811066,4002
714074060,-0.0026248123,0.0010327782,-0.0003396081,3997,0,0.10266797,-0.029599043,-9.790417,3997
714078060,0.0005638579,0.0018897777,-0.00070458103,4000,0,0.09340417,-0.04080332,-9.772791,4000
714082062,0.0024932323,0.00092182594,0.00010248591,4002,0,0.094540484,-0.025784057,-9.789745,4002
714086061,0.0007890317,0.0026287667,-6.049837e-05,3999,0,0.099930614,-0.0059618005,-9.810996,3999
714090061,-0.0014844529,2.8199984e-05,0.0038865074,4000,0,0.10283247,0.0045306855,-9.809034,4000
714094060,-0.00034454747,0.005043364,0.002221925,3999,0,0.108370334,-0.021427458,-9.794248,3999
714098061,-0.0026682685,-0.0047067064,-0.002645958,4001,0,0.09003725,-0.017366495,-9.778569,4001
714102063,-0.00083269353,-0.0015085925,-0.0014647227,4002,0,0.0738022,-0.008021385,-9.799158,4002
714106062,-0.0010037457,-0.002596532,0.00086826016,3999,0,0.08638635,-0.014463846,-9.817997,3999
714110063,-0.0011162548,-0.003235074,0.0006498492,4001,0,0.09137633,-0.01077282,-9.806642,4001
714114061,-0.0016081445,-0.0041111684,0.002883383,3998,0,0.08059543,-0.017791985,-9.820311,3998
714118061,-1.4329415e-06,0.00056589575,0.003440852,4000,0,0.08561492,-0.018105146,-9.835136,4000
714122060,-0.0005894243,0.002304845,6.916993e-05,3999,0,0.07686745,-0.018494777,-9.8426485,3999
714126063,0.0009230176,0.0031434072,0.0015391113,4003,0,0.075871475,-0.018308003,-9.817378,4003
714130060,0.0008172646,0.00079668843,0.0016197428,3997,0,0.0790625,-0.032865033,-9.798579,3997
714134060,0.00029640296,-0.003573642,0.0023232168,4000,0,0.077742375,-0.02766359,-9.791866,4000
714138060,0.00073210313,0.0029131034,0.0028172112,4000,0,0.07882285,-0.020750405,-9.812235,4000
714142060,0.0016674019,0.0031409087,0.0015263426,4000,0,0.09637106,-0.014742556,-9.79488,4000
714146061,-0.0007938459,-0.003443719,0.00064100494,4001,0,0.09359061,-0.019756997,-9.818156,4001
714150061,0.0012291172,3.4924582e-05,0.0016012616,4000,0,0.09553719,-0.020133177,-9.813107,4000
714154063,0.0011460367,-0.0009104704,0.0021254576,4002,0,0.10226228,-0.008654277,-9.786813,4002
714158060,-0.0015316987,-0.004729829,0.0011708805,3997,0,0.091154255,-0.024332628,-9.792047,3997
714162062,-0.00052888587,-0.0018856325,0.0037417344,4002,0,0.10356722,-0.026216533,-9.794198,4002
714166060,0.0020043387,0.000785562,0.0025564954,3998,0,0.09534958,-0.044817157,-9.798528,3998
714170060,0.0002709156,0.005277194,0.000830673,4000,0,0.0934006,-0.02933126,-9.773134,4000
714174061,0.0015164567,-0.0025691898,-0.0011986328,4001,0,0.095689,-0.016336728,-9.779198,4001
714178061,-0.0013411348,-0.0035442295,-0.0002019171,4000,0,0.095972545,-0.026753552,-9.790715,4000
714182063,-0.0010063405,-0.0011119676,0.00088566885,4002,0,0.09604198,-0.014307276,-9.785415,4002
714186060,-0.0032786939,-0.008110271,-0.0012861738,3997,0,0.088726364,-0.010938114,-9.794223,3997
714190060,-0.0014642337,-0.0012117446,-0.0008142536,4000,0,0.08530685,-0.0067664864,-9.825438,4000
714194061,-0.0005803259,-0.00089362473,0.00077255315,4001,0,0.08003412,-0.020116145,-9.825556,4001
714198060,-0.0009750271,-0.0033626002,0.0025609382,3999,0,0.077331424,-0.03521301,-9.843274,3999
714202063,0.00038193545,-0.0015362211,0.0010674804,4003,0,0.07950498,-0.024391081,-9.828435,4003
714206063,0.0003714553,0.0064528454,0.00041613803,4000,0,0.082317755,-0.014165486,-9.80507,4000
714210063,-0.0006992621,0.0035832124,8.318099e-05,4000,0,0.082169086,-0.03158056,-9.785305,4000
714214061,0.0007138264,-5.9799848e-05,0.0018251432,3998,0,0.08378596,-0.021643238,-9.774809,3998
714218060,-0.0007937404,-0.001532197,0.00076916785,3999,0,0.08673423,-0.023325188,-9.798594,3999
714222060,-0.00045415282,-0.0011212952,0.0019395621,4000,0,0.09846646,-0.006897905,-9.811944,4000
714226061,0.0008176204,-0.00015922057,0.0016097951,4001,0,0.100354,0.0026718685,-9.813765,4001
714230064,-0.0007756548,-0.0050616795,0.0018973302,4003,0,0.09707384,-0.02890315,-9.809324,4003
714234063,-0.0009797605,-5.6434164e-05,0.002282171,3999,0,0.09006037,-0.043370552,-9.798891,3999
714238063,-0.00022823406,-0.0025142755,0.0026644133,4000,0,0.08107084,-0.025906185,-9.821372,4000
714242061,-3.5586494e-05,-0.00016295307,0.0016206882,3998,0,0.08400368,-0.019716274,-9.815705,3998
714246060,0.0018853456,0.0049482645,0.0017555167,3999,0,0.089693286,-0.007590929,-9.793259,3999
714250060,-0.00015093324,-0.0018519055,0.0009704337,4000,0,0.0842948,-0.020251257,-9.773814,4000
714254104,-0.001247596,0.0014351968,-0.0007686403,4044,0,0.10257289,-0.018613484,-9.799274,4044
714258060,-0.0017524601,0.00031497976,0.00037906712,3956,0,0.107102886,-0.012689539,-9.812551,3956
714262060,-0.0006046549,0.0003986029,-0.0005952296,4000,0,0.100610375,-0.0065729027,-9.799134,4000
714266061,5.468031e-05,0.0012374026,0.0005740827,4001,0,0.086055376,-0.03367894,-9.809664,4001
714270061,0.0016351469,0.0009258966,-0.0003084214,4000,0,0.09647739,-0.02166429,-9.816352,4000
714274060,0.0010486328,0.002692929,0.0028071331,3999,0,0.08988489,-0.026508821,-9.809641,3999
714278062,0.0003026043,0.002809617,0.0026103149,4002,0,0.08569146,-0.022764875,-9.803345,4002
714282060,-0.00047043664,0.004107458,0.0009350988,3998,0,0.101084895,-0.018047769,-9.799276,3998
714286060,-0.0027334094,-0.0027938462,-0.000594965,4000,0,0.093616925,-0.007654394,-9.788094,4000
714290060,-0.0011104356,0.002298423,0.0010338183,4000,0,0.09325523,-0.0011509547,-9.808492,4000
714294061,-0.0015517629,-0.0022705663,0.00035113376,4001,0,0.074152194,-0.0122032035,-9.802121,4001
714298060,0.002459668,0.0069408617,0.0042175218,3999,0,0.0876463,-0.017065668,-9.800928,3999
714302062,0.00081966753,0.0061171167,0.0017884882,4002,0,0.09088723,-0.011726051,-9.807118,4002
714306061,-0.0014276785,0.0011247626,0.001024455,3999,0,0.09132998,-0.012666539,-9.809499,3999
714310061,0.0019800267,0.0071882852,0.0011422908,4000,0,0.0833329,-0.011803693,-9.801271,4000
714314061,0.0017118957,0.0035362067,0.0040849824,4000,0,0.08843931,-0.011216096,-9.81039,4000
714318061,0.0006418736,-0.003583689,0.0035930772,4000,0,0.09284646,-0.010337583,-9.804745,4000
714322073,-0.00029653913,-0.006894921,0.0048500295,4012,0,0.090421245,-0.015565558,-9.805739,4012
714326063,-0.00044396348,-0.0020764398,0.002348059,3990,0,0.092023015,-0.005821153,-9.827496,3990
714330061,-0.0006859243,0.0037870174,0.00082982064,3998,0,0.0972393,-0.008624762,-9.827627,3998
714334063,0.0013228316,-0.003546279,6.988448e-05,4002,0,0.091125146,-0.015871972,-9.820483,4002
714338061,0.0020836992,0.0016565081,0.00097002246,3998,0,0.0773833,-0.014054714,-9.812605,3998
714342060,0.0016618021,-0.00068574934,0.0011622142,3999,0,0.06880848,0.0021626104,-9.810361,3999
714346060,0.00019350229,-0.0007016827,0.0024649755,4000,0,0.075083114,0.0030872081,-9.807139,4000
714350061,-0.00088198716,-0.0043118885,0.0018031867,4001,0,0.0782455,-0.011922571,-9.790728,4001
714354061,0.0005700865,0.0031641063,-0.00037040265,4000,0,0.08965173,-0.018557064,-9.795758,4000
714358060,0.00017820268,0.0052728923,0.0015733144,3999,0,0.094980136,-0.041482892,-9.790453,3999
714362060,-0.00026958805,-0.0031252818,0.00031596675,4000,0,0.10035103,-0.041602477,-9.786232,4000
714366060,-0.0015324281,0.00069765706,0.0011274156,4000,0,0.08567021,-0.022279026,-9.804286,4000
714370061,-0.00046098887,0.0015442393,0.0015444107,4001,0,0.08518843,-0.02562002,-9.804321,4001
714374060,-0.0013541613,-0.0036436685,-0.0008420188,3999,0,0.087103106,-0.02753675,-9.804845,3999
714378060,-0.0006719872,-0.0035676803,0.0017010967,4000,0,0.07895484,-0.017638305,-9.832168,4000
714382060,-0.0013096457,-0.0011202826,0.0017414654,4000,0,0.08497635,-0.026125088,-9.843775,4000
714386061,-0.001199349,-0.00016168984,0.0018572409,4001,0,0.09484836,-0.027114263,-9.800223,4001
714390060,0.00072139443,0.0018543783,0.0021667914,3999,0,0.09614781,-0.029893218,-9.808352,3999
714394062,-0.00078806985,0.00815397,0.0010941228,4002,0,0.08288321,-0.014182883,-9.798508,4002
714398061,-0.0016501163,0.0016631562,0.00050210045,3999,0,0.08322393,-0.0106156,-9.779874,3999
714402060,-0.001124137,-0.00014317795,0.0001534438,3999,0,0.07884322,-0.02363168,-9.811313,3999
714406061,-0.001022548,0.0028410763,-0.00013262146,4001,0,0.07860072,-0.024740776,-9.797541,4001
714410060,-0.0010874699,0.0049423818,0.0022336934,3999,0,0.066381216,-0.020595415,-9.784442,3999
714414064,0.0007213358,0.0050457036,0.0020946218,4004,0,0.07819912,-0.0018633539,-9.793921,4004
714418062,0.0010867834,-0.0006595775,-0.0011688261,3998,0,0.07994613,-0.010179405,-9.775068,3998
